name,alias,address,city,country,lat,lon,code_phrase
Astrid du Guerin,None,"65, avenue de Maillet 63957 BigotVille",Paris,France,48.7016,2.2623,quod dignissimos
Alexandre Poirier,None,"28, boulevard de Paul 23525 Le Roux",Paris,France,48.7494,2.1631,nihil libero
Renée David,None,"36, rue Gilbert Potier 28815 Saint Andrée",Paris,France,48.75,2.2278,maxime id
Marthe-Inès Hubert,None,"4, rue Philippe Delahaye 24099 Saint Timothée-sur-Mer",Paris,France,48.8923,2.4955,deserunt et
Noël-Georges Ollivier,None,"397, rue Aurélie Blondel 39197 Saint Élise-la-Forêt",Paris,France,48.931,2.2689,quae doloremque
Joseph Boutin,Chao,boulevard Clerc 37319 Ribeiro,Paris,France,48.9694,2.473,voluptatum harum
Hortense Faure,None,rue Astrid Sanchez 13209 Sainte Nathalie,Paris,France,48.7524,2.3539,dolores quibusdam
Marcelle Boyer,None,"27, avenue Bailly 13358 Saint Luce",Paris,France,48.9157,2.2026,cum modi
Pierre Collin,None,"93, rue Pons 65495 Bertin-sur-Mer",Paris,France,48.823,2.1029,rerum ipsum
Luc Le Lucas,None,chemin de Vallee 83968 Salmonboeuf,Paris,France,48.8008,2.1231,tempore sapiente
Isaac de Gimenez,None,"154, chemin de Benard 04110 Martins-sur-Mer",Paris,France,49.0491,2.1535,quidem nam
Franck Lelievre,None,"49, boulevard Dufour 21229 Legranddan",Paris,France,49.0392,2.1863,quis nam
Grégoire du Auger,None,"14, boulevard de Grondin 95112 Pruvost",Paris,France,48.7969,2.3838,dolorum sed
Charles-Christophe Guillou,None,"583, chemin Le Gall 88078 Lebonnec",Paris,France,48.7783,2.2071,voluptatum iure
Pierre Marques,None,"219, rue Gérard Morin 87162 Sainte PierreVille",Paris,France,48.9006,2.3591,est totam
Sylvie Godard,Reaper,rue de Faivre 55386 Traore-la-Forêt,Paris,France,49.089,2.4769,dolor praesentium
Brigitte Le Gautier,None,"68, rue Laurent Pons 74020 CoulonVille",Paris,France,48.921,2.4627,inventore quaerat
Anaïs Bruneau,None,rue Agnès Le Roux 85995 Maillet,Paris,France,48.933,2.2908,saepe perspiciatis
Lucy Descamps,None,"470, boulevard de Barre 44600 Jean",Paris,France,48.9866,2.1346,suscipit voluptatem
Rémy du Gallet,None,chemin Suzanne Pelletier 72834 Dupontdan,Paris,France,48.9759,2.2692,reprehenderit corrupti
Clémence Lebreton,Bullet,"468, rue Alphonse Schneider 28322 Davidnec",Paris,France,48.9114,2.4857,rem quasi
Alex Lamy,None,"88, rue Aimé Pascal 53570 Hamel-sur-Mer",Paris,France,48.7324,2.4101,voluptatibus aliquid
Isaac Herve-Hubert,None,"26, rue de Couturier 20232 Schneider-sur-Mer",Paris,France,49.0557,2.4677,eligendi inventore
Zoé Petit-Delorme,None,boulevard Fabre 96776 Marie-sur-Mer,Paris,France,49.0463,2.5746,ut dolorum
Louise Michel,None,"88, avenue Marc Maillet 90263 Salmon",Paris,France,48.9003,2.5239,cum tempora
Jean Berger,None,"6, rue Augustin Le Goff 24437 Boyer-sur-Mer",Paris,France,48.8168,2.5799,repudiandae sed
Thibault Boulay,None,"59, rue Henriette Leger 02884 Merle",Paris,France,48.9905,2.4681,necessitatibus quos
Manon Menard,None,"43, rue Reynaud 26104 Pelletier",Paris,France,48.7838,2.5333,numquam adipisci
Luce Barre,None,"98, rue Julien Lopes 29382 Bouchet",Paris,France,48.8426,2.2232,alias maiores
Simone Blanc,None,"16, avenue Clement 96908 Valentin",Paris,France,48.8109,2.4732,amet a
Benoît Aubert,None,"164, avenue Leleu 88561 Verdier-la-Forêt",Paris,France,48.9655,2.4405,explicabo totam
Céline Peron,None,"44, chemin Ramos 89094 Saint Marcelboeuf",Paris,France,48.9973,2.5737,veniam recusandae
Eugène de Gerard,None,"57, rue Marechal 37699 Bonnin-sur-Leroux",Paris,France,48.6311,2.2498,amet sed
Rémy Dupre,None,"956, rue de Lemaire 31589 Charles",Paris,France,49.01,2.2156,quo at
Christiane Couturier,None,"17, rue de Carpentier 96076 KleinVille",Paris,France,48.9984,2.156,consequuntur at
Capucine-Olivie Bousquet,None,"76, rue Inès Masson 26925 Saint Brigitte-sur-Mer",Paris,France,48.655,2.3774,perspiciatis perferendis
Dominique Bonnet,None,"8, avenue de Blin 89520 Joseph",Paris,France,48.8729,2.4474,blanditiis accusantium
Frédéric Leroy du Michel,None,"84, boulevard Clémence Dumas 82944 Gimenez-sur-Dufour",Paris,France,48.9897,2.2233,voluptas labore
Paul Tessier,None,"73, chemin Daniel Poirier 21699 Saint Constance-les-Bains",Paris,France,48.7925,2.2014,distinctio dignissimos
Suzanne Vallee,None,"48, rue de Ledoux 07782 Benoitnec",Paris,France,49.0282,2.3288,magnam veniam
Christiane Perrier de Chevalier,None,"2, rue Bernadette Nguyen 51350 Vallee",Paris,France,48.6105,2.4582,vel numquam
Caroline Bertin,Beauty,"69, boulevard Gosselin 03294 Lejeunenec",Paris,France,48.8838,2.5493,commodi ea
Isabelle Simon-Pineau,None,"63, rue Leclercq 81717 Deschamps-sur-Petit",Paris,France,48.7719,2.5848,culpa dolores
Anouk Roux-Leroy,None,"915, rue de Clerc 24554 Da Silva",Paris,France,48.888,2.4872,rerum ab
Denis Blondel-Thierry,None,"39, rue Camille Rolland 40245 Hubert",Paris,France,48.6839,2.3981,recusandae neque
Emmanuel Colas,Jaguar,"25, boulevard de Coulon 72646 Saint HenrietteBourg",Paris,France,48.824,2.2699,repudiandae pariatur
Christelle Brun-Le Goff,None,"35, avenue Valérie Morvan 27299 Marechal",Paris,France,49.0681,2.1222,eaque nam
Martin Roche-Chauvet,None,"9, boulevard Bonnet 09970 Germaindan",Paris,France,48.8848,2.3297,nam non
Marthe Alves,None,"29, boulevard de Bousquet 10788 Verdier",Paris,France,49.0672,2.5535,esse adipisci
Caroline Mercier,None,"39, avenue Christiane Mendes 46402 Lejeune",Paris,France,49.0985,2.5081,nobis quia
Auguste Jean-Blot,None,"91, chemin de Philippe 33315 Sainte Denis-sur-Mer",Paris,France,48.9059,2.31,ab recusandae
Matthieu-Guillaume Jean,None,boulevard Lefort 94854 Maury,Paris,France,48.8493,2.1915,quibusdam inventore
Timothée Merle-Clement,None,"6, chemin de Hardy 43939 Chartier",Paris,France,48.898,2.3932,quas provident
Pauline-Maggie Pages,None,"414, chemin Corinne Peltier 98840 Renard-sur-Mer",Paris,France,48.808,2.5976,ex expedita
Anouk Fabre,Breaker,"6, boulevard de Menard 23897 Fleury",Paris,France,48.968,2.5589,aliquam distinctio
Bernadette Marchal,Dollar,"58, boulevard Frédéric Goncalves 65569 BrunBourg",Paris,France,48.8965,2.5904,non ullam
Aimé Royer,None,"1, boulevard Vaillant 82183 Sainte ÉdithVille",Paris,France,48.6652,2.3103,sequi ullam
Margaux Dias,None,"818, avenue de Leclercq 50381 Cordier-sur-Mer",Paris,France,49.078,2.5849,et veniam
Joseph Bonnin,None,"45, boulevard Célina Laroche 72486 ChartierBourg",Paris,France,48.6136,2.4283,iure iure
Emmanuel Faivre,None,"25, boulevard Marty 76013 Collin-sur-Pierre",Paris,France,49.0413,2.2029,velit sequi
Emmanuel Lacombe,None,chemin Pereira 21374 Leger,Paris,France,48.8976,2.4026,tenetur necessitatibus
Alexandre-Gilles Lombard,None,avenue Émilie Carlier 57832 Prevost-sur-Briand,Paris,France,48.9307,2.2633,dicta quae
Martine Weber,None,"57, rue de Rolland 93695 Diaz",Paris,France,48.9549,2.1736,corrupti enim
Laurent Hernandez,None,"88, boulevard de Fouquet 20031 Riviere",Paris,France,49.0034,2.3886,optio eligendi
Martine Riou-Fernandes,None,"13, boulevard Philippe 15121 Saint Nicoleboeuf",Paris,France,49.0915,2.2306,non iste
Victor Giraud,None,"303, avenue de Boucher 93970 Lemoine-sur-Guillot",Paris,France,48.7408,2.271,tempore iure
Olivier Muller,None,"180, avenue Olivier Payet 42153 Bourdon",Paris,France,48.7745,2.1696,quia voluptatum
Bertrand Le Gall-Lemaitre,None,"175, avenue Delorme 73779 Grenier",Paris,France,48.7048,2.3021,accusantium accusantium
Jeanne Renaud,None,"29, avenue de Vincent 29664 Renault",Paris,France,48.7882,2.2943,quod nihil
Éric Hamon,None,"48, chemin de Charles 66914 Saint Alphonse-la-Forêt",Paris,France,48.6312,2.1463,dignissimos dicta
Honoré Garcia-Denis,None,"54, rue Alfred Dupuy 06482 Dias-sur-Boulanger",Paris,France,48.7102,2.4638,magni corrupti
Roger-Jules Fernandes,None,"58, rue de Lombard 20143 Gerard-sur-Mer",Paris,France,48.8385,2.1058,impedit optio
Anne Grenier,None,"88, boulevard Thomas Marin 22011 Maryboeuf",Paris,France,48.7354,2.2283,exercitationem ad
Bertrand Parent,None,"53, chemin de Marin 73081 Tanguy",Paris,France,48.7156,2.519,odit quibusdam
François Guichard,None,"73, boulevard de Gomez 81720 Goncalves",Paris,France,48.7738,2.5883,corrupti deleniti
Hélène du Cousin,None,"211, rue de Imbert 84180 AntoineVille",Paris,France,48.8901,2.3653,neque sequi
Antoinette Gosselin,None,"81, avenue Hernandez 89203 Durand-la-Forêt",Paris,France,48.6428,2.4636,nemo debitis
Daniel Ribeiro,None,rue Lagarde 69478 Denis-les-Bains,Paris,France,48.7851,2.3739,itaque deserunt
Michelle-Victoire Marques,None,"63, boulevard de Chauvet 43991 Lacombe-sur-Garnier",Paris,France,48.9334,2.3449,rerum consectetur
Bertrand Francois,None,"74, chemin Gerard 94478 Garnier",Paris,France,48.9618,2.5386,quasi beatae
Astrid Lefevre,Calypso,"45, rue de Fournier 16502 Jolydan",Paris,France,48.734,2.1807,at quaerat
Martin Tessier,None,chemin de Thibault 67946 GrondinBourg,Paris,France,48.6531,2.1873,repellendus dolor
Jacques Didier du Germain,None,rue Maryse Pires 89568 Sainte Marthe-la-Forêt,Paris,France,48.7309,2.4638,quod magnam
Thibaut-Alfred Bernier,None,"65, chemin de Leroux 24276 Lefort",Paris,France,49.0332,2.5553,ratione earum
Antoine Normand-Descamps,None,"61, chemin Da Costa 83725 Michaud-sur-Mer",Paris,France,49.0796,2.5025,ipsam possimus
Gilles Daniel,None,rue de Rodriguez 00081 BessonVille,Paris,France,48.9891,2.3842,animi vitae
Éléonore-Corinne Chartier,Clown,"3, rue de Blot 31335 Sainte Julien-sur-Mer",Paris,France,48.925,2.1952,non nihil
Xavier-Augustin Perez,None,"11, boulevard de Deschamps 19707 Renault",Paris,France,49.0479,2.2935,architecto placeat
Zacharie du Laporte,None,"192, rue Noémi Bertrand 35447 BlanchetBourg",Paris,France,48.8099,2.5536,pariatur omnis
Arthur Michel,None,"23, avenue de Millet 87068 Voisinnec",Paris,France,48.9279,2.4605,assumenda reiciendis
Xavier Perrin,None,boulevard Joseph Munoz 99420 Allain,Paris,France,48.9601,2.212,doloremque magnam
Simone Martel,None,"228, chemin de Da Silva 64806 Bernier",Paris,France,49.0423,2.2914,dolore porro
Denise Brun,None,"53, rue de Pierre 05833 Gregoireboeuf",Paris,France,48.9915,2.3521,sit sint
Simone Gauthier,None,"69, avenue Labbe 82623 Cousin-la-Forêt",Paris,France,48.7017,2.5667,commodi perferendis
Christophe Moulin-Moreau,None,"39, chemin Fournier 05200 Verdier",Paris,France,49.0476,2.273,impedit reprehenderit
Auguste Adam,None,"67, chemin Delattre 63516 Perrot-la-Forêt",Paris,France,48.795,2.2107,aut quisquam
Louise Collin,Stiletto,"95, chemin de Bernard 14042 Le Goff",Paris,France,48.6266,2.5124,esse quaerat
Nathalie Auger du Langlois,None,"14, boulevard de Marchand 37254 GiraudVille",Paris,France,48.6993,2.3263,itaque cum
Nathalie-Pénélope Hamel,Oso,"809, rue Susan Foucher 82071 Guillet",Paris,France,48.8377,2.2894,nobis modi
Hélène de la Gaudin,None,"25, chemin Descamps 42220 Sainte Eugène",Paris,France,48.8705,2.5208,odit deserunt
Julien-Édouard Diaz,None,avenue de Francois 65774 Bigot-la-Forêt,Paris,France,49.0648,2.2395,esse quaerat
Alain Chauvin,None,"33, rue Bigot 21242 Turpin",Paris,France,48.7012,2.1623,modi perferendis
Odette Schmitt,Bad,"90, avenue Delahaye 95176 Barthelemy",Paris,France,48.6855,2.162,voluptate numquam
David Aubert,Stiletto,"8, rue de Pichon 41248 Jean-sur-Courtois",Paris,France,48.7264,2.1799,qui nisi
Auguste Daniel,None,"1, avenue de Ferrand 17813 Morel",Paris,France,48.7118,2.3588,expedita labore
Madeleine Fabre,None,"12, avenue Gérard Auger 74868 Hebert",Paris,France,49.0468,2.1339,error voluptates
Frédérique Bouvier,None,"2, rue Danielle Bouvet 08023 Legrand-sur-Garnier",Paris,France,48.6363,2.449,eligendi provident
Odette Raynaud,None,"9, avenue Vincent Nicolas 92526 Arnaudboeuf",Paris,France,48.9679,2.4705,debitis harum
Maurice Robert,Sleepy,"51, chemin de Clerc 92605 Bernier-sur-Courtois",Paris,France,48.6676,2.5072,magni neque
Charles Meyer,None,"68, avenue Duval 82789 Langloisnec",Paris,France,48.8932,2.2398,error doloremque
Nathalie Boucher Le Leveque,None,"462, rue Picard 33995 Navarro",Paris,France,48.6356,2.235,laudantium totam
Lucas de Mercier,None,"26, boulevard Charles Parent 33434 Bousquet",Paris,France,48.9304,2.36,culpa ut
Adrien Charpentier,None,"32, rue Thibault Philippe 28017 Blanchard",Paris,France,48.9692,2.1679,autem sint
Georges Pruvost Le Andre,None,"79, rue Suzanne Jacquot 93776 Bailly",Paris,France,48.9889,2.3094,incidunt labore
Hugues-Adrien Morin,None,"46, rue Leroy 27142 Gomes",Paris,France,48.6942,2.1964,minima soluta
Antoine du Langlois,None,"585, avenue Étienne Pons 53382 Dufour",Paris,France,48.8914,2.5144,provident doloremque
Laetitia Lopes,None,"3, rue de Dos Santos 95016 Bodin-la-Forêt",Paris,France,48.9173,2.3583,consequuntur laborum
Franck Hoareau,None,"33, avenue Vallet 82514 Guyot-les-Bains",Paris,France,48.6875,2.1768,nulla ea
Lucas Turpin,Ambush,"84, chemin Bailly 12095 MaryVille",Paris,France,48.8843,2.1988,ullam beatae
Marcel Gerard,None,"54, boulevard de Blanchard 86312 Daniel",Paris,France,48.9896,2.5807,magnam sunt
Xavier Becker,Tequila,"1, chemin de Gauthier 56629 Couturier-sur-Lopes",Paris,France,49.0142,2.3734,omnis esse
Henriette Charpentier,None,rue de Girard 28718 Lesage-sur-Carre,Paris,France,49.022,2.4699,occaecati quam
Frédérique Le Lebrun,None,"27, rue Roland Louis 25604 Hernandezdan",Paris,France,48.6285,2.4949,ipsa atque
Juliette Marie,None,"9, chemin de Guyon 86430 Rodriguez",Paris,France,49.0223,2.268,numquam aspernatur
Aurélie de Boulanger,None,"6, chemin Becker 86252 Verdierboeuf",Paris,France,48.8955,2.4472,pariatur laudantium
Stéphane Masse-Da Silva,None,"572, rue de Voisin 65841 Saint Xavier",Paris,France,48.8188,2.3314,labore voluptas
Bernadette Perret,None,"1, rue Olivie Guilbert 80282 Bouvet-les-Bains",Paris,France,48.761,2.2882,quisquam voluptatum
Jérôme Martel,None,"510, chemin Pottier 02107 Sainte Robert",Paris,France,48.9765,2.205,dolore nemo
Joseph Charpentier,None,"460, chemin Michelle Martinez 56249 Vidal-sur-Alves",Paris,France,48.8385,2.1572,quis ipsa
Michèle Pascal,Boulder,rue Chretien 58577 Henry,Paris,France,48.6672,2.1858,voluptatum voluptatem
Aimé Ruiz-Leroy,None,"58, boulevard Olivie Martinez 99302 Peltiernec",Paris,France,48.7986,2.4937,a velit
Célina Coste,None,"7, chemin Perrot 38781 Marques",Paris,France,48.9862,2.1236,dolor aliquid
Marthe Marty,None,chemin de Chauvin 77128 Fischer,Paris,France,48.9761,2.5829,voluptates eveniet
William Barbe,None,"5, avenue Margot Albert 83280 Sainte Victor",Paris,France,48.824,2.3677,esse maiores
Bernard-Luc Perrot,None,"48, avenue Riviere 89317 Masson",Paris,France,48.7625,2.2398,atque doloribus
Patrick Albert,None,"2, boulevard Allard 95404 Barbe",Paris,France,48.876,2.4887,ducimus eligendi
Antoine Reynaud,None,"9, boulevard de Riviere 40752 Hubert",Paris,France,49.0471,2.3761,eum repellat
Audrey Bonneau,None,"46, boulevard de Prevost 24252 Raymond-sur-Jacquot",Paris,France,48.6716,2.1345,ratione sunt
Chantal Le Lagarde,None,"958, chemin de Benard 62609 TexierVille",Paris,France,48.7394,2.2732,eaque veniam
Théophile Couturier,Caprice,"55, rue Margaud Guillot 96471 Labbe",Paris,France,49.0272,2.3403,incidunt animi
Michèle Guyon,None,boulevard Margot Gregoire 89397 Fernandesnec,Paris,France,49.0772,2.4321,veritatis dicta
Jeannine Vallee,None,"4, chemin de Joly 03165 Meyer",Paris,France,48.7429,2.4216,laborum facere
Michelle-Michelle Clerc,None,"78, chemin Cousin 70014 Jacob-sur-Teixeira",Paris,France,48.6675,2.5671,natus recusandae
Jacques-Paul Adam,None,"35, rue Henry 94741 Bigot",Paris,France,48.6398,2.1697,commodi explicabo
Margaret Blondel,None,"78, avenue Adrien Adam 40357 Saint Margaret",Paris,France,49.0379,2.4346,delectus at
Agnès Delmas,Gordo,"3, avenue de Gaudin 35663 Sainte Dorothéenec",Paris,France,48.9466,2.3873,quod suscipit
Henri Roy,None,"49, rue de Ledoux 98955 Brun-la-Forêt",Paris,France,48.9761,2.2251,voluptatibus quisquam
Noël Moulin,None,"850, rue de Prevost 07289 LopezBourg",Paris,France,48.7908,2.2428,blanditiis atque
Alain Paris,Vixen,"91, boulevard Michel 16886 Saint Michelle",Paris,France,48.7383,2.1687,at perferendis
Grégoire-Denis Regnier,Freestyle,avenue Suzanne Traore 84349 Reynaud-sur-Torres,Paris,France,48.9109,2.1885,cupiditate laudantium
daisy Traore,None,"938, chemin de Guilbert 72731 Beguedan",Paris,France,48.6747,2.3883,magni quas
Charles Leroux,None,"80, chemin Leger 50117 Brunel",Paris,France,48.7471,2.2447,tenetur ea
Thibaut Herve,None,"50, chemin de Deschamps 63024 Saint Bertrand",Paris,France,48.6806,2.4568,ipsa soluta
Édouard Grenier,None,"32, boulevard Guy Boulanger 70684 Chartier",Paris,France,49.0133,2.5207,accusantium aut
Alexandre-Vincent Blanchard,None,rue de Jacques 14754 JeanBourg,Paris,France,48.6518,2.5269,unde aliquid
Margaux Philippe,None,"581, chemin de Lambert 47516 Sainte Susannec",Paris,France,48.9864,2.4248,molestiae placeat
Corinne Aubert,None,"2, chemin Jean Masson 04848 Saint Julie",Paris,France,48.9801,2.3612,dolores quae
Eugène Ledoux,None,rue Alphonse Charpentier 47350 Godard,Paris,France,49.0442,2.591,neque sunt
Marcel Maury,None,chemin Inès Colin 39683 Guillot,Paris,France,48.9184,2.2674,velit amet
Lucie Le Guyon,None,"8, rue de Barbe 59715 Bertrand",Paris,France,48.8279,2.1732,temporibus molestiae
Luc Caron,None,"602, chemin de Berthelot 35773 Diaz",Paris,France,48.927,2.2978,corrupti in
Roger Garcia,None,"64, rue Thomas Dupre 88144 Marin-sur-Barthelemy",Paris,France,48.7766,2.5733,quasi repudiandae
Emmanuel Philippe-Wagner,None,"27, rue Normand 20702 Peron",Paris,France,48.9603,2.1765,ab libero
Amélie Hamon de la Andre,None,"93, rue Isaac Foucher 66138 Morenoboeuf",Paris,France,48.8677,2.5562,ipsa odio
Céline Ollivier,None,"199, boulevard Mahe 82008 Delaunay",Paris,France,48.9137,2.4073,molestiae sapiente
Martin Lemaitre,None,"110, boulevard de Weiss 80419 Saint Audrey",Paris,France,48.9368,2.4295,facilis autem
Émilie Letellier,None,"1, boulevard de Mendes 19927 Charrierboeuf",Paris,France,48.7674,2.3727,occaecati modi
Patricia Fabre,None,"3, rue Monique Brun 18891 Bourdon-la-Forêt",Paris,France,49.0106,2.1619,ducimus aut
Gérard-Jean Aubry,None,rue de Didier 49765 Da Silva,Paris,France,49.0455,2.4509,fuga reprehenderit
Michèle-Zoé Gosselin,None,"42, rue Françoise Gimenez 54280 LetellierVille",Paris,France,48.7118,2.4448,recusandae laborum
Thomas Vaillant,Foxy,rue daisy Guillot 91787 Fontaine,Paris,France,48.9323,2.5354,iusto eius
Marthe Barre,None,"81, avenue Élise Gomez 41254 Georges",Paris,France,49.0004,2.5887,ad at
Robert De Sousa-Gilles,None,avenue Constance Julien 69564 BarreVille,Paris,France,48.7184,2.1562,harum accusantium
Nathalie Leblanc,None,"3, chemin de Camus 02611 Pineau",Paris,France,49.0824,2.2231,quidem voluptatem
Matthieu Colas,None,"1, rue de Delahaye 22401 Lejeune",Paris,France,48.7792,2.3504,consequuntur architecto
Suzanne-Sabine Hoarau,None,"24, chemin Guilbert 97946 Ledoux-sur-Monnier",Paris,France,49.0185,2.1048,asperiores magnam
Gabrielle Guibert,None,"639, avenue Augustin Hamel 27268 Laurent",Paris,France,48.7213,2.3915,magni dicta
René Louis,Goldie,"3, chemin Gay 39929 Dumas",Paris,France,48.6203,2.3482,non vel
Martine Allain,None,"83, rue Rossi 44676 Lefort",Paris,France,49.0746,2.1781,pariatur rerum
Christiane Grondin,None,"50, rue de Perez 47445 Fernandez-sur-Delannoy",Paris,France,48.8265,2.4934,aspernatur consequuntur
Michel Dos Santos,None,"56, chemin Perez 72775 Marin",Paris,France,49.0131,2.1183,ratione eum
Christophe Michaud,None,"97, boulevard Édith Meunier 49632 Saint Susan",Paris,France,48.6466,2.4125,dolore similique
Léon Bertrand,None,"2, avenue Costa 76090 Duhamel",Paris,France,48.8441,2.5189,nobis tempora
Léon Samson,None,"97, boulevard Charles 95491 Vaillant",Paris,France,48.8303,2.323,ullam est
Raymond Pasquier,None,"89, boulevard de Robin 66903 Lefebvre-les-Bains",Paris,France,48.8774,2.1327,inventore sunt
Odette Gomez,None,"4, boulevard Aimée Godard 25162 Martinez",Paris,France,48.6686,2.5078,repellat libero
Margaux Rocher,None,avenue Nicolas 21875 WeissBourg,Paris,France,48.7871,2.5071,a harum
Jacqueline Baron Le Merle,None,"82, chemin de Mahe 62961 Meyerdan",Paris,France,48.8533,2.1265,mollitia nemo
Simone Alves,None,"10, avenue Clerc 41566 Bernard",Paris,France,48.9989,2.3024,inventore vel
Gérard Fouquet,None,boulevard Dumont 98703 LebonBourg,Paris,France,48.9078,2.4492,quasi iusto
Marc Rousseau,None,"9, rue de Rossi 45671 Saint MarcelleVille",Paris,France,48.9019,2.4733,voluptatum veniam
Arthur Coste,None,"583, rue de Perrier 37488 Aubert",Paris,France,48.7402,2.4209,animi neque
Jacques Mallet,None,"54, chemin Camille Garnier 90038 MartinBourg",Paris,France,48.9868,2.1259,dicta veritatis
Yves Hernandez,None,"57, avenue de Blanc 28275 Remy-la-Forêt",Paris,France,48.8013,2.5882,consectetur quo
Honoré Diaz,None,"75, boulevard Diane Michel 26980 Noel",Paris,France,48.7357,2.3367,doloremque vel
Pierre Lecoq,None,"243, avenue Vincent Nguyen 99350 Sainte Benjamin",Paris,France,49.0358,2.165,voluptates veniam
Éric-Émile Pottier,None,"76, rue de Bouvier 45568 Saint Claude",Paris,France,48.8205,2.3834,omnis saepe
Hugues du Dupont,None,"598, boulevard de Perez 79294 Saint Audrey-les-Bains",Paris,France,48.8719,2.3857,asperiores vitae
Benjamin Meunier,None,"50, rue Lemoine 17923 Saint Timothée",Paris,France,48.8196,2.1296,commodi repellat
Thibault Francois,None,rue Hoarau 89735 Allain,Paris,France,48.8101,2.2674,praesentium enim
Franck-Christophe Cousin,None,"76, rue Michelle Nguyen 95840 Aubry",Paris,France,48.8772,2.2749,non deserunt
Élodie Poirier,None,"46, avenue de Lemaitre 34884 GilbertVille",Paris,France,48.6074,2.2668,voluptatem enim
Emmanuelle Bouvet-Renaud,None,avenue Collin 46944 Pereira,Paris,France,48.6762,2.3063,nobis excepturi
Emmanuel-Xavier Carpentier,None,chemin Martin Faivre 79659 Chevalier-sur-Guyon,Paris,France,48.7346,2.291,ullam temporibus
Robert Collin,None,"2, rue Pascal 49808 Chretien",Paris,France,48.8856,2.2789,id corrupti
Alex Dupont,Blaze,"15, avenue de Guibert 31410 Sainte Dianeboeuf",Paris,France,49.0734,2.5115,iusto alias
Laurent Didier,None,boulevard Lopes 88331 Martindan,Paris,France,48.9707,2.3748,necessitatibus neque
Alexandre Perrin,None,avenue de Cohen 38043 BoucherVille,Paris,France,48.8946,2.3542,molestias nisi
Bernard Dos Santos,None,boulevard de Raymond 96811 Barbier-sur-Hubert,Paris,France,48.6535,2.2885,cumque repudiandae
Éric Thomas,None,"37, rue Maury 00220 Chauvin",Paris,France,48.8787,2.5867,fuga nisi
Zacharie Legros,None,"66, rue de Costa 07522 Leroux",Paris,France,48.846,2.1161,ducimus perferendis
Isaac Fontaine,Chao,"90, chemin Thierry 20004 Saint Laetitia-les-Bains",Paris,France,48.6084,2.5356,ducimus sed
Monique Valentin-Vallee,None,"93, avenue de Letellier 14660 Blot",Paris,France,48.8958,2.592,quo fugiat
Capucine Gomez,None,"82, rue de Paris 58379 Sainte Anoukboeuf",Paris,France,49.0327,2.5953,asperiores at
Timothée Hamel,None,"48, rue Juliette Poulain 33627 Boulay",Paris,France,48.8254,2.2086,possimus et
Nath Gallet,None,"81, avenue de Reynaud 61212 Marechal",Paris,France,48.7353,2.5331,ipsum vero
Alice Rousseau,None,"53, boulevard Rey 89544 Germain",Paris,France,48.7622,2.263,error labore
Vincent Mace,None,"27, rue Thibaut De Sousa 48926 DeschampsVille",Paris,France,48.6382,2.4497,minima id
Monique Guillou,None,"37, boulevard Weiss 66468 Godard-sur-Mer",Paris,France,48.6881,2.2732,quo excepturi
Suzanne Guichard,None,"52, boulevard Alphonse Moulin 45605 Jolydan",Paris,France,48.8144,2.5276,temporibus quia
Denis Lambert,None,boulevard de Hebert 13884 Guyon,Paris,France,48.9643,2.2527,aspernatur magnam
Benjamin Laine,None,"20, avenue de Lemaire 19920 Petit",Paris,France,48.7745,2.1317,earum perspiciatis
Timothée Leconte,None,"511, boulevard Laure Labbe 68648 Saint MarcVille",Paris,France,49.0737,2.5041,similique fugit
Hugues Peron,None,"4, chemin Célina Weber 12881 Caron-sur-Vincent",Paris,France,48.8333,2.1052,expedita ab
Margot Vallet du Becker,None,"2, rue Delaunay 97504 Fontainenec",Paris,France,48.6375,2.2805,numquam qui
Pénélope Delorme,None,"840, chemin Alfred Robin 18802 Saint Christophe",Paris,France,49.0499,2.1734,officiis nulla
Christelle Fontaine,None,"68, chemin Théophile Salmon 13793 Huet",Paris,France,48.9016,2.5765,asperiores amet
Noël Chauvin,None,"24, rue Bourdon 75395 Leclercq",Paris,France,48.8114,2.459,commodi saepe
Suzanne Chartier,None,"65, rue Chauveau 33315 Sainte Charles",Paris,France,49.0833,2.1891,voluptate labore
Théodore Masson,None,"849, boulevard de Ramos 28845 Sainte Dorothée-les-Bains",Paris,France,48.9014,2.4904,quae et
Nicolas Leroy,None,avenue Martine Samson 86610 Renaud-sur-Navarro,Paris,France,48.6378,2.5507,nisi suscipit
Michelle De Oliveira,None,"86, rue Marcel Thomas 51671 RocheVille",Paris,France,49.014,2.3694,a commodi
Thomas Moulin,None,avenue Alix Devaux 44474 Maury,Paris,France,48.7016,2.2562,totam id
Marine Roche-Julien,None,"34, avenue de Teixeira 24629 Vallee",Paris,France,48.657,2.2895,corporis natus
Claire Michel,None,"97, boulevard Renée Charles 19754 Dufourdan",Paris,France,49.0765,2.5487,nostrum natus
Philippine Muller,None,"36, rue Roland Mercier 22462 Leclerc-sur-Lecomte",Paris,France,48.7219,2.2945,quisquam fuga
Laurent Collet,None,"88, avenue Maillet 52938 Saint RobertBourg",Paris,France,48.9168,2.3679,ab ullam
Bernard Hoarau-Regnier,None,"57, boulevard Torres 65286 Peron",Paris,France,48.7093,2.4705,voluptas perspiciatis
Monique Barbe,Negro,"33, chemin Olivier 27477 Huetboeuf",Paris,France,48.7697,2.4954,sit necessitatibus
Antoinette Guyot,Gambino,"943, rue Rousseau 46265 NormandBourg",Paris,France,48.7206,2.5841,veritatis error
Rémy Vidal,Spite,rue de Perret 23299 Delannoy,Paris,France,49.0131,2.3549,omnis molestiae
Charles Chauvin,None,"68, avenue Colin 42594 Riou",Paris,France,49.0081,2.3798,aperiam veritatis
Alphonse de Thibault,None,rue de Arnaud 75708 Guillou-sur-Mer,Paris,France,48.9126,2.3474,suscipit laboriosam
Adrien Girard,None,"94, chemin de Gilles 89520 Saint Charles",Paris,France,48.9412,2.401,commodi veritatis
Christophe Noel,None,"86, rue Chauveau 09353 Boulanger-sur-Bonnin",Paris,France,48.7843,2.4718,sunt soluta
Gabriel Guillou,Playboy,"4, boulevard Goncalves 14460 Martineauboeuf",Paris,France,49.1055,2.2875,molestiae unde
Maryse Bernard,None,"749, rue Fouquet 71910 Dupuy",Paris,France,48.8578,2.4508,qui officia
Nicole Remy-Colin,None,rue Becker 17202 Leclercq-sur-Leger,Paris,France,48.6227,2.1309,ipsum saepe
André Raymond Le Diaz,None,"1, rue Bouvier 15645 Aubry",Paris,France,48.9517,2.205,ducimus ducimus
Suzanne Girard,None,"12, rue Céline Roux 16888 Saint Eugène",Paris,France,48.7678,2.3561,fuga ab
François Labbe,None,"197, chemin Dumont 68513 ParentVille",Paris,France,48.6639,2.4316,rem reprehenderit
Sophie Laporte,None,"17, rue de Diallo 69880 Perrin",Paris,France,48.7374,2.1817,a quos
Geneviève Legrand,None,"82, chemin Boyer 43363 Marques",Paris,France,48.7311,2.5433,corrupti esse
Christophe Marion de Royer,Vixen,"41, boulevard de Martineau 29880 Marty",Paris,France,48.8917,2.2574,maxime exercitationem
Henri Noel,None,"61, rue Camus 25961 Sainte Charlotte",Paris,France,48.9967,2.4506,nostrum iste
Raymond Hoarau de Lombard,She-devil,"83, rue Caroline Vasseur 28353 Lefevre",Paris,France,48.7698,2.4804,ad iusto
Alfred Gay,None,"16, rue Océane Gomez 50661 Leveque",Paris,France,48.7081,2.4994,nam est
Agnès du Labbe,None,"59, boulevard de Wagner 10808 DelannoyVille",Paris,France,48.7465,2.5048,voluptate alias
Stéphanie Guillet-Besnard,None,"76, rue de Garnier 57271 Fontaine",Paris,France,48.6926,2.5428,veniam expedita
Arnaude Dupont de Legrand,None,"9, avenue de Thierry 59609 Pires-sur-Mer",Paris,France,48.7322,2.25,voluptatibus quisquam
Victor de Dupuis,None,"30, rue de Allain 45968 Saint NicolasBourg",Paris,France,49.0128,2.2835,temporibus nihil
Jean Royer,None,"1, chemin Guichard 20983 Saint Gabriel",Paris,France,48.9091,2.1325,labore distinctio
Luce-Isabelle Guibert,Tramposo,"49, rue Berger 82276 Garcianec",Paris,France,48.7453,2.3258,cupiditate corporis
Philippine Colin,None,chemin Marguerite Rodriguez 88399 Rolland,Paris,France,48.7389,2.1426,iure optio
Roger Bazin de la Bigot,None,"55, avenue Lopes 92523 Saint BenjaminVille",Paris,France,48.9339,2.1459,possimus numquam
Margot de Blanc,None,"44, rue Hoarau 32137 Teixeira-sur-Mer",Paris,France,48.8606,2.2971,illo sed
Nicole Jacquot du Clerc,None,"43, boulevard Potier 77022 Nguyennec",Paris,France,48.8488,2.2075,adipisci praesentium
Augustin Perret,None,"78, chemin Victor Lacombe 74439 Chartier-la-Forêt",Paris,France,49.0361,2.4377,vitae laudantium
Geneviève Barre,None,boulevard Dijoux 20151 Pierre,Paris,France,49.0846,2.5934,exercitationem cumque
François Alexandre,None,"6, boulevard de Begue 25425 Saint Arthurdan",Paris,France,48.9887,2.5855,error quia
Jacqueline Jacquet,None,"54, avenue Théophile Neveu 36370 Millet",Paris,France,49.0433,2.1112,iure labore
Marcel Perrot,None,"5, rue Marine Maillard 72384 Sainte Denisenec",Paris,France,48.787,2.3028,ex quia
Charlotte Bazin,None,rue de Lemonnier 90146 Andre,Paris,France,48.915,2.2186,sapiente earum
Diane-Nathalie Tanguy,Yeyo,"6, rue Garnier 35968 Sainte Thibault-les-Bains",Paris,France,48.6861,2.3972,expedita atque
Virginie Navarro,None,"26, rue Anne Blanchet 43103 Saint daisy",Paris,France,49.0764,2.2467,sint sapiente
Zacharie Olivier,None,"50, avenue Margaud Henry 98185 Thibaultboeuf",Paris,France,48.9135,2.4635,culpa ipsa
Raymond Courtois,None,"582, boulevard Chretien 89731 BigotVille",Paris,France,49.0339,2.4279,molestiae dicta
Véronique Diaz,None,"35, chemin de Couturier 26534 Boyernec",Paris,France,49.0522,2.1261,numquam repudiandae
Aurore Clerc,None,"49, rue Leblanc 07115 Camus-sur-Morvan",Paris,France,48.9322,2.2045,nobis voluptatum
Michel Launay,None,"39, rue Aurore Sauvage 89989 Dubois",Paris,France,48.836,2.4244,facilis et
René Costa,None,"71, avenue de Rolland 50101 Mace",Paris,France,48.8759,2.1945,voluptatibus voluptas
Margaret Perrot de Lacroix,None,avenue de Bertrand 63467 Sainte Margot,Paris,France,49.0871,2.1099,nobis beatae
Antoine Philippe,None,"77, rue Marcel Mendes 06018 Blin-sur-Gaudin",Paris,France,48.6946,2.199,blanditiis iusto
Andrée Humbert,None,boulevard Céline Nicolas 55426 Hamel-sur-Aubry,Paris,France,48.9893,2.2118,ullam quaerat
Laure Renard-Rousset,None,avenue Xavier Chevalier 42949 Bonneau,Paris,France,48.9512,2.3144,laudantium illo
Jacques-Joseph Roussel,None,"63, boulevard de Delmas 29516 Collet",Paris,France,49.0321,2.3152,accusamus doloribus
Adrien Jacquet de la Leblanc,None,"85, rue Jacquot 34065 Perez",Paris,France,49.0173,2.4144,qui ducimus
Constance-Emmanuelle Renaud,Happy,"9, avenue daisy Baudry 24078 Saint Luc-sur-Mer",Paris,France,48.8406,2.2178,nostrum distinctio
Anouk David,Spite,"32, rue Parent 82765 Boulanger-la-Forêt",Paris,France,48.7523,2.2097,iure ipsa
Christophe Leroy,None,"93, boulevard Henry 68038 CohenVille",Paris,France,49.1053,2.54,odio beatae
Susanne Evrard,None,"17, boulevard Adélaïde Leveque 33327 Caron-la-Forêt",Paris,France,49.0799,2.2231,veniam delectus
Matthieu Peron,None,"65, rue Prevost 80621 Gomes-la-Forêt",Paris,France,48.6815,2.534,ex doloribus
Gabrielle Hardy-Guillet,Joker,"9, boulevard de Descamps 73358 Sainte Agathe",Paris,France,48.8305,2.5672,explicabo nobis
Raymond Payet de la Joseph,None,"76, chemin de Leroux 02989 GuyonBourg",Paris,France,48.7477,2.1744,laboriosam atque
Alfred Henry Le Dupre,None,"91, rue Sophie Arnaud 86990 Sainte Maryse",Paris,France,49.0411,2.441,mollitia ipsam
Henri Muller,None,"39, chemin Lebrun 95482 Ledoux",Paris,France,48.7815,2.2939,quis occaecati
Arnaude Coulon,None,"13, rue Gauthier 84845 Blin",Paris,France,49.1033,2.5437,veniam dolores
Benjamin Renault,None,"190, avenue Lemoine 74751 Sainte Roland",Paris,France,48.9948,2.257,non dicta
Étienne Collet,None,"265, rue Georges 50982 Fouquet-la-Forêt",Paris,France,48.9853,2.2122,consequatur velit
Corinne Prevost,None,"46, avenue Inès Besson 99783 PereiraBourg",Paris,France,48.9578,2.4186,incidunt pariatur
Maggie Techer,None,rue Prevost 94024 Gillet,Paris,France,49.0102,2.251,at dicta
Marcel Allain,None,"351, avenue Nath Grenier 45665 BoutinVille",Paris,France,48.745,2.5632,minus est
Martine Legros,None,"24, rue de Pierre 30324 Sainte Frédéricboeuf",Paris,France,48.6914,2.1771,deleniti nam
Nathalie Chevallier,None,"90, rue Thierry 33388 Sainte Antoine-sur-Mer",Paris,France,48.9466,2.5088,culpa velit
Antoine Guillon,None,"57, chemin Garnier 17281 Leblanc",Paris,France,48.7071,2.1499,recusandae neque
Gilbert-Alain Denis,None,"9, boulevard Caroline Mathieu 04542 Saint Suzanne-les-Bains",Paris,France,49.1019,2.273,doloremque dignissimos
Michelle Lebreton du Pottier,None,"971, avenue Nathalie Renard 30804 Sainte Anouk",Paris,France,48.7381,2.1244,saepe nesciunt
Claire du Paris,None,"66, chemin Chevalier 53178 Saint Anaïs-sur-Mer",Paris,France,48.7271,2.4081,totam deserunt
Sébastien Robin,None,"20, boulevard de Tanguy 02955 Noel",Paris,France,48.9488,2.2343,eveniet perferendis
Marc Gerard,None,"32, avenue de Schmitt 18832 Muller",Paris,France,48.6181,2.3239,ab earum
Paulette Gallet,Caprice,"10, rue Chevallier 42964 Vasseur",Paris,France,49.0905,2.3367,ea sit
Noël Girard,Popcorn,"1, boulevard Charpentier 60613 Arnaud",Paris,France,48.7813,2.3669,deleniti aliquam
Élisabeth Mace-Huet,Wicked,"303, rue Leclercq 54051 Sainte François",Paris,France,48.8917,2.2833,totam pariatur
Charles Potier,None,"78, rue de Rey 69148 Daniel",Paris,France,48.7435,2.1718,ab consequuntur
Céline Nguyen Le Lemaitre,None,boulevard Grenier 10042 Bertrand,Paris,France,49.0085,2.2426,facere ullam
Guillaume Fleury,None,"46, chemin Thérèse Benard 91203 Dupont",Paris,France,48.7908,2.4015,pariatur optio
Guy Picard,None,"4, rue Martineau 44485 Baudry",Paris,France,48.7692,2.5049,ducimus doloremque
Sébastien Roy,None,"24, boulevard Clémence Chauveau 57212 Gauthier",Paris,France,48.6451,2.4844,sequi iure
Nicole Langlois du Bouvier,None,"2, avenue Morel 44017 Moreldan",Paris,France,48.8824,2.5316,qui fugiat
Paulette Giraud,None,"88, avenue Audrey Allard 50021 Guyon",Paris,France,48.9283,2.5235,dolorem repellat
Jacqueline-Martine Leclercq,Travieso,"1, chemin de Bernard 55793 Vincent",Paris,France,48.8777,2.5449,iste sequi
Gilles Ollivier,Gangster,"18, avenue Gregoire 62942 Goncalves",Paris,France,48.8165,2.1038,cumque eius
Anaïs Pierre,None,"14, chemin Constance Gros 04374 Besnard",Paris,France,48.7139,2.3581,similique sed
Zoé Giraud,None,"892, avenue Victoire Aubert 68364 Sainte Claudine-la-Forêt",Paris,France,49.0576,2.1441,occaecati consectetur
Jade Lane-Smith,None,95 Chloe path Wayneborough WR1H 4YD,London,United Kingdom,51.6232,-0.1435,repellat deserunt
Kevin French,None,92 Campbell forest Lake Terry CW73 6WB,London,United Kingdom,51.5954,-0.1828,deserunt id
Philip Lloyd,None,37 David grove Bethanborough L7 6GD,London,United Kingdom,51.493,-0.2911,illo consequatur
Miss Kayleigh Blackburn,None,Flat 3 Tracy ranch Joneston M43 1JA,London,United Kingdom,51.5725,-0.1668,dolore rerum
Kyle Turner,None,3 Marcus estates Marionview M9W 4GB,London,United Kingdom,51.3117,-0.1113,laudantium harum
Mr. Brian Evans,None,0 Hyde parkway Port Tracyville S4 2AG,London,United Kingdom,51.4361,-0.2459,ea officia
Grace Butcher,None,Studio 30 Justin island East Barbaratown M2G 1HS,London,United Kingdom,51.6681,-0.1059,repudiandae accusantium
Brian James-Brown,None,Flat 26z Jill keys West Kierantown DT8B 1TU,London,United Kingdom,51.5881,0.0287,unde et
Billy Hewitt-Clark,None,Flat 87A Amy field North Clive E9 1PD,London,United Kingdom,51.3227,-0.2582,eos quasi
Georgia Howard,None,Studio 4 Jones brooks Port Chloe WN5 0SH,London,United Kingdom,51.4305,-0.0546,a illum
Joe Abbott,None,97 Ricky flats Boothfort KY4R 6FY,London,United Kingdom,51.259,-0.2717,tempore repellat
Philip Nixon,None,775 Butler view Brennanhaven E96 3GN,London,United Kingdom,51.7012,-0.1241,rerum iure
Stacey Connolly,Maton,Studio 7 Richards course North Jeffreystad E37 3BH,London,United Kingdom,51.4906,-0.1396,recusandae eligendi
Diana Jones,None,608 Hartley ports East Christopher B46 0SR,London,United Kingdom,51.7173,-0.0644,soluta excepturi
Ricky Russell,None,Studio 4 Diana trail West Russell DN73 6AF,London,United Kingdom,51.7003,-0.299,voluptatem quod
Mr. Michael Hughes,None,Studio 8 Francesca terrace New Bethberg S21 5AQ,London,United Kingdom,51.2644,-0.229,expedita fugiat
Victoria Ahmed,Raven,Flat 49 Pearce grove South Steventon S2 5WH,London,United Kingdom,51.3434,-0.0722,nesciunt fugit
Anthony Singh-Morris,Popoye,Studio 46 Woods green Port Francismouth DG3M 3GB,London,United Kingdom,51.4902,-0.3704,quod molestiae
Lynne Brown,None,Studio 8 Hugh rue New Douglas EN2 5US,London,United Kingdom,51.4855,-0.2297,enim tempora
Hannah Bradley,Spider,280 Shane garden East Thomas L24 0NJ,London,United Kingdom,51.4895,-0.3314,impedit repellat
Bradley Brown-Dyer,None,Studio 9 Bibi square Edwardsstad WC2 6RH,London,United Kingdom,51.6229,0.0643,quaerat impedit
Frederick Lee,Bullet,Studio 83 Fry ways East Emma BS3W 0QR,London,United Kingdom,51.6178,-0.2057,ut eveniet
Beth Wilson,None,3 Davis run Harrisonmouth KT6W 1UF,London,United Kingdom,51.5448,-0.3459,itaque sint
Janet Wood,None,38 Bradley wall Lake Brettville W07 7PP,London,United Kingdom,51.3902,-0.0329,laborum ea
Sarah Williams,Knuckles,Studio 61v Stewart wall Lake Ian HG3W 0GF,London,United Kingdom,51.2595,-0.2989,nesciunt delectus
Derek Thomas,None,Flat 6 Bartlett forge Patrickhaven S7 9AH,London,United Kingdom,51.5733,-0.2913,molestias ad
Martyn Gray,None,Studio 9 Andrea groves Richardland SW01 2RE,London,United Kingdom,51.459,-0.2292,sed deleniti
Lesley Cook-Turner,None,6 Bethany lights Williamston B6C 3TZ,London,United Kingdom,51.7003,-0.2665,deleniti eaque
Lisa French,None,36 Kevin dale Port Samville SA3 1AB,London,United Kingdom,51.6276,-0.2444,eveniet eum
Jane Brown,None,Flat 11 Ryan cliffs Port Paul G6D 0EQ,London,United Kingdom,51.5955,-0.0168,adipisci veniam
Jacqueline Day,None,54 Kathleen canyon East Rebeccaborough LS33 7LZ,London,United Kingdom,51.7194,0.0561,blanditiis provident
Melissa Bell,None,Studio 11U Marion plain Lake Normanfort NG1 1AA,London,United Kingdom,51.6672,-0.0153,fugit necessitatibus
Miss Sheila Knowles,None,Studio 07Z Johnson estate North Terry TF5 5EU,London,United Kingdom,51.3954,0.0212,molestiae maxime
Donna Hardy-Hartley,None,066 Joshua plain South Marc KT9R 4BW,London,United Kingdom,51.3299,-0.0022,similique possimus
Garry Carter,None,Studio 5 Byrne estate South Leonardland M38 6XQ,London,United Kingdom,51.2633,-0.3256,autem quae
Laura Brooks-Watson,None,24 Hayley glen Joefort S1 2HR,London,United Kingdom,51.6169,-0.1992,suscipit dicta
Oliver Brown-Carey,None,Flat 8 Lewis alley Lesleyside KY6 7JG,London,United Kingdom,51.6345,-0.1274,laborum excepturi
Dr. Gavin Burrows,None,012 Stanley curve North Sara G2 7NJ,London,United Kingdom,51.4164,-0.1998,magnam incidunt
Dr. Joseph Hammond,None,016 Debra knoll Oliverport WS2 7ZJ,London,United Kingdom,51.4166,-0.0117,enim voluptatum
Robert Parkes,None,921 Graham ramp Port Helenchester TW2 6JA,London,United Kingdom,51.3811,-0.133,praesentium corrupti
Marian Griffiths,None,Flat 58 Reed vista Lake Terryhaven BN25 1LS,London,United Kingdom,51.6496,0.0941,itaque ratione
Karen Wilkinson,Angel,Studio 08G Wright stravenue Jordanberg CV9 1WZ,London,United Kingdom,51.5475,0.068,ad amet
Mohamed Read,None,94 Charlie greens Lake Adam L5 6QZ,London,United Kingdom,51.7209,-0.0548,ea eum
Mr. Elliot Sharpe,None,Studio 56 Matthew courts Brettview DE4 5YZ,London,United Kingdom,51.3297,0.0743,explicabo officiis
Lucy Bradley,None,15 Matthews walks Lake Victoriaborough CB16 7GP,London,United Kingdom,51.3506,-0.2578,provident vel
Clive Welch,None,Flat 22I Walker port Roweland E18 8LU,London,United Kingdom,51.6978,-0.1744,quam laborum
Glenn King,None,5 Rita stream Laneville W6E 5FJ,London,United Kingdom,51.5383,-0.3533,tempora soluta
Dr. Raymond Dodd,None,8 Julia estates Smithchester S7 3AR,London,United Kingdom,51.701,-0.1779,id quidem
Dr. Bruce Law,None,728 Stephen shore South Alison S03 5XT,London,United Kingdom,51.6427,-0.2554,voluptas officia
Albert Smart,None,Studio 72 Lucy haven Sheilaville E71 5WY,London,United Kingdom,51.5746,0.046,earum magni
Kathleen Perkins,None,068 Bryan causeway New Geraldburgh S2A 9EL,London,United Kingdom,51.3321,-0.2686,laborum nemo
Dawn Hyde,None,Studio 2 Williams prairie West Frances B95 5XQ,London,United Kingdom,51.3108,-0.1741,necessitatibus at
Sam Atkins-Mitchell,None,57 Haynes field Lorraineville OX9 9PA,London,United Kingdom,51.6869,-0.1268,consequatur odit
Miss Gemma Armstrong,None,1 Johnson garden Laneberg IG12 7LB,London,United Kingdom,51.2992,-0.3289,ea autem
Alan Thornton,None,83 King rest Lake Bethanport DN2A 2TH,London,United Kingdom,51.5937,0.1215,molestiae consequuntur
Jamie Harrison-Holmes,None,7 Nicole club Brownland W6U 8FG,London,United Kingdom,51.5645,0.0686,natus quas
Terry Dixon,Cisco,Studio 4 Davidson forges Lewiston CV0 1UL,London,United Kingdom,51.6427,-0.0751,provident nulla
Melissa Fisher,None,49 Stevens terrace Port Maria B0 9NT,London,United Kingdom,51.6962,-0.0631,deleniti tempore
Mrs. Heather Bowen,None,0 Joanne harbors New Kayleighport E6T 8SY,London,United Kingdom,51.3393,-0.2584,facilis nesciunt
Ian Tucker-Davies,None,Flat 66 West tunnel Holmesland L8 4DH,London,United Kingdom,51.3723,-0.3731,nostrum magnam
Mrs. Emma Walsh,None,Studio 29 Hughes path Wilsonburgh BS95 3LH,London,United Kingdom,51.3659,-0.1,inventore dolorum
Mr. Colin Dean,Little,13 Adrian springs New Lesleystad HX0 1TD,London,United Kingdom,51.3506,-0.153,explicabo autem
Gavin Taylor,None,539 Jeffrey island Port Oliviaton G19 5DJ,London,United Kingdom,51.4745,0.1075,architecto voluptas
Ruth Stevenson,None,Flat 61 Lee courts Andersonstad B0S 4UW,London,United Kingdom,51.5495,-0.2816,ratione reiciendis
Jack Gibson,None,Flat 25u Debra lights Lake Matthew TN7X 1AF,London,United Kingdom,51.6855,-0.097,quibusdam occaecati
Jason Davis,Crow,Studio 5 Harrison ridge West Mohamed SS4 2EQ,London,United Kingdom,51.2972,-0.0474,natus asperiores
Alexandra Taylor,None,Studio 63q Declan fords North Rosiebury B11 1QU,London,United Kingdom,51.3905,-0.079,iusto suscipit
Hazel Green,None,Flat 6 Fox hollow South Joshtown KW46 3FW,London,United Kingdom,51.5608,-0.2058,asperiores id
Tracy Johnson,None,91 Turner curve Paynemouth L5 1RY,London,United Kingdom,51.4507,0.0982,atque eos
Jeffrey Webster,None,27 Charles bypass Marianburgh PR11 0FP,London,United Kingdom,51.6348,-0.1219,quo repudiandae
Patricia Allen,None,Flat 24o Dean lakes Hussainmouth G2W 8FF,London,United Kingdom,51.595,-0.366,repellat fugit
Miss Stephanie Taylor,Jaguar,Studio 65W Todd ranch West Clive DT04 5XR,London,United Kingdom,51.4337,0.0561,eum ad
Ms. Georgia Kaur,None,Studio 61 Liam fall Lake Helenshire CO4 2SL,London,United Kingdom,51.3954,0.0905,exercitationem aliquam
Emily Chapman,None,Studio 48 Aimee squares West Rhys SW76 5BJ,London,United Kingdom,51.7162,-0.2822,deserunt consectetur
Nicola Clarke,None,Studio 3 Lindsey neck West Aaron E9 9RF,London,United Kingdom,51.4789,-0.1241,cumque est
Russell Butler-Parsons,None,25 Barrett land East Janet EC2 3BG,London,United Kingdom,51.4941,-0.0673,molestias voluptate
Leah Brooks,None,Studio 2 Cole dam Port Brucemouth N0 5UL,London,United Kingdom,51.6917,-0.0775,rerum eius
Reece Johnston,None,3 Roger summit New Carlyfurt KT37 5AN,London,United Kingdom,51.5797,-0.1934,totam fuga
Dr. Marcus Harris,None,Studio 8 Katy square Charleneshire NP35 8BZ,London,United Kingdom,51.746,-0.3169,aliquam delectus
Suzanne Stevens,None,108 Connor villages West Grahambury S3C 2WP,London,United Kingdom,51.2942,-0.3668,nemo eaque
Rhys Gregory,None,Flat 57h Lambert inlet South Juliafurt BA9V 7YX,London,United Kingdom,51.7005,-0.2221,eos aspernatur
Miss Clare Barrett,None,Studio 47S Ricky lake North Samton B4 5PY,London,United Kingdom,51.5969,-0.314,odio atque
Ross Lucas-Kelly,None,Flat 1 Thomas lake South Stephanie M1 0AG,London,United Kingdom,51.3524,-0.1096,in ducimus
Lesley Turner,None,Studio 61 Katie throughway Jonesmouth N6 7PH,London,United Kingdom,51.2789,-0.0464,doloremque hic
Mrs. Jill Murray,None,Flat 72 Cameron glen Alexanderton W52 4BF,London,United Kingdom,51.4453,-0.1061,voluptatibus doloremque
Natasha Morgan,None,Studio 9 Kemp centers Gibbonsport S6T 0AD,London,United Kingdom,51.6685,-0.3746,magnam hic
Dr. Charles Stephenson,Frosty,9 Sheila estates Port Kennethfort S1 8HJ,London,United Kingdom,51.667,-0.3736,veniam commodi
Dr. Edward Ahmed,None,84 Patterson squares West Paulaport M4 4AX,London,United Kingdom,51.5148,0.0307,dignissimos dolor
Kenneth Griffiths,None,2 Shaun glen North Ellieberg L9 2JA,London,United Kingdom,51.2839,-0.2152,repudiandae provident
Daniel Newman-Daly,None,5 Dennis passage Adamview LE9 8RP,London,United Kingdom,51.437,-0.2075,maiores et
Julia Smith,None,185 Thomas walks Lake Albertfurt M8 4RA,London,United Kingdom,51.3341,0.0104,suscipit vitae
Georgia Pugh,None,9 Janice pines South Callummouth KA1 6AE,London,United Kingdom,51.6941,-0.0626,optio hic
David James,None,Flat 61 Reynolds square Abdulchester L8 2JD,London,United Kingdom,51.7483,-0.0751,ipsam exercitationem
Charlene Clarke,None,Studio 3 Karen drive New Graham SP03 3YH,London,United Kingdom,51.39,0.1028,amet tempore
Michelle Parkes,None,Studio 96 Nicole tunnel East Grace S4T 5BN,London,United Kingdom,51.2735,0.0207,provident suscipit
Mr. Christian Morris,None,818 Brown forks Williamsshire G76 7FP,London,United Kingdom,51.5907,-0.0106,quibusdam eos
Mrs. Jenna Griffiths,None,Flat 1 Black course Allenborough CW4 2UE,London,United Kingdom,51.3011,-0.2238,ducimus quis
Matthew Fry,None,Flat 62 Ward drive Lake Aaron E1G 3HF,London,United Kingdom,51.6698,-0.2422,quasi ea
Simon Burns,None,5 Glen plaza New Elizabeth LU0 6RX,London,United Kingdom,51.6831,-0.2931,minima dicta
Tracy Davis,None,63 Pauline knoll New Kimberleymouth DY8 7TB,London,United Kingdom,51.3791,-0.157,autem natus
Emily Fraser,None,570 Hall trail New Annashire DG1A 5QA,London,United Kingdom,51.6557,-0.2278,debitis blanditiis
Miss Heather Rogers,None,Studio 16 Bishop green Brownbury M5 4UR,London,United Kingdom,51.7419,-0.1154,possimus perferendis
Vincent Carroll,None,Studio 3 Mandy cape Nigelburgh BS89 6YB,London,United Kingdom,51.6731,-0.2607,sequi numquam
Miss Amanda Ahmed,None,Flat 23 Marian pike Louisside TN20 8GW,London,United Kingdom,51.7492,-0.2181,nobis voluptas
Dr. Pauline Quinn,None,Studio 08 Turner rapid Port Mohammad N3W 1NJ,London,United Kingdom,51.5555,-0.1318,modi dolor
Shane Miles,None,3 Ricky green North Ericfort S09 0GP,London,United Kingdom,51.4393,-0.152,necessitatibus dignissimos
Alison Watkins,None,930 Carly valley Nelsonland M6 7PX,London,United Kingdom,51.4747,0.1181,harum voluptas
Dr. Jill Lamb,None,9 Josephine ferry Terenceton W9 5YE,London,United Kingdom,51.7143,-0.125,deleniti aliquid
Cheryl Holmes,None,4 Jarvis flats South Trevorfurt CH3 4TY,London,United Kingdom,51.3204,-0.1381,nemo maxime
Dr. Leon Hartley,None,27 Simpson square Sandersfort CM22 7ZL,London,United Kingdom,51.326,-0.1352,ea quia
Mr. Jordan Walton,None,Flat 69 Craig views North Natasha N5 0HP,London,United Kingdom,51.4241,-0.0142,ad optio
Ms. Mary Dixon,None,Studio 09 Ronald unions East Laura N3S 9UJ,London,United Kingdom,51.3062,-0.1983,modi perferendis
Lee Thomas,None,18 Debra run Michaelport EN9P 6RR,London,United Kingdom,51.5788,0.098,maxime laborum
Miss Georgia Hunt,None,92 Lawrence lock Chadwickchester CO13 6HA,London,United Kingdom,51.5506,-0.0009,occaecati doloremque
Olivia Jordan,None,Flat 43 Edwards forest Suzannetown L1 3BL,London,United Kingdom,51.4281,-0.187,aut eveniet
Mr. Allan Lloyd,None,Studio 8 Scott landing Port Amber GL0R 2AY,London,United Kingdom,51.3167,-0.1922,rem assumenda
Mr. Martin Johnson,None,344 Smith forks Willisfurt TS4M 3ZR,London,United Kingdom,51.7214,-0.1766,fugit deserunt
Jonathan Summers,None,Flat 02p Mandy burg South Owenburgh DY7 5GQ,London,United Kingdom,51.3455,0.0944,at delectus
Jodie Hall,None,Studio 23U Eric villages Wrightport SG8Y 7TX,London,United Kingdom,51.5328,-0.0249,consequatur sint
Dr. Joshua Jackson,None,77 Sykes lights Port Bruce S2S 2SL,London,United Kingdom,51.7435,-0.1164,ipsam officia
Dr. Tracey Barker,None,Flat 5 Watson harbors Port Harrietton AB8 4RG,London,United Kingdom,51.7239,-0.0241,magnam temporibus
Iain Stevens,None,25 Reece lake West Alisonfort GL81 0WX,London,United Kingdom,51.7061,-0.2233,ipsam nemo
Lynne Kirk,None,40 Sian stream East Marion B5 9FW,London,United Kingdom,51.4728,-0.2615,quidem modi
Lydia Simpson-Watkins,None,331 Cooke cape Lowefort B3U 6BX,London,United Kingdom,51.4165,-0.1315,dolorem in
Nathan Thomas-Chamberlain,El,Studio 43 Bruce shores Stuartfurt B21 3GA,London,United Kingdom,51.3195,-0.2803,praesentium itaque
Oliver Newton,None,3 Duncan avenue Port Paulaberg TD39 3AT,London,United Kingdom,51.4025,-0.133,laborum magni
Patricia Wright,Black,Flat 18J Bevan place Crawfordview EH39 0JS,London,United Kingdom,51.601,-0.0219,reprehenderit soluta
Mrs. Elaine Walsh,None,Studio 8 Hughes lakes Joannehaven E9 4FW,London,United Kingdom,51.5117,0.0543,minus repellendus
Dr. Kenneth Hussain,None,76 Nicola dale Aliton WD84 3HX,London,United Kingdom,51.2705,-0.3396,voluptatum ullam
Sam Quinn-Anderson,None,Flat 64H Johnson isle South Duncan B7A 3XE,London,United Kingdom,51.5277,-0.3563,est quos
Henry Williams,None,Studio 68 Jennifer ville Robinville FK0B 7HP,London,United Kingdom,51.5804,-0.0394,nostrum est
Phillip Smith,None,Flat 43K Walters orchard Katieborough W92 7FG,London,United Kingdom,51.3422,0.1008,consectetur assumenda
Stephanie Williams,None,303 Knight corners Atkinsonshire IV7N 8AW,London,United Kingdom,51.6111,-0.1696,quia facere
Julian Davies,None,Flat 05 Barry station West Alice M1 4NJ,London,United Kingdom,51.5145,-0.1701,eveniet qui
Mr. Harry Frost,None,456 Guy well South Anneville W9J 8LT,London,United Kingdom,51.4947,-0.1994,illo reiciendis
Nicole Barnett,None,969 Brenda turnpike Robsonchester G41 7YF,London,United Kingdom,51.4754,0.0101,libero consequuntur
Joanna Mills,None,65 Hannah brooks Taylorburgh NR3V 1UG,London,United Kingdom,51.6918,-0.248,quidem est
Mohammed Williams,None,15 Andrews springs Lake Garyville AB1R 9ZE,London,United Kingdom,51.3821,-0.0835,consequatur consequuntur
Dr. Ryan Barrett,None,Flat 34j Sharon highway Reecemouth PA4 8JE,London,United Kingdom,51.2909,0.0928,rerum quam
Kathleen Thomas,None,0 Joanne via New Amy SK9X 4FB,London,United Kingdom,51.3892,0.113,voluptas quisquam
Mr. Vincent Duffy,None,573 Jill plaza Catherinemouth S8U 0EP,London,United Kingdom,51.6924,-0.1649,eos blanditiis
Laura Walton-Fuller,Bonafide,Studio 63w Mark terrace Marilynfort RG7 8NW,London,United Kingdom,51.6231,-0.2634,tempora expedita
Gary Dunn,None,588 Winter square Georgemouth TR07 0DW,London,United Kingdom,51.6448,-0.3032,veritatis quo
George James,None,Studio 21t Graeme turnpike Howardland LN2V 7LG,London,United Kingdom,51.304,0.0888,illum inventore
Mr. Henry Graham,None,Studio 96 Terence stravenue Baileyview WC5Y 1QQ,London,United Kingdom,51.6411,0.0743,vel dolorem
Miss Ellie Blackburn,None,39 Wall squares Holliebury E71 7ER,London,United Kingdom,51.5882,-0.065,quae vel
Mr. Ryan Buckley,None,74 Davis branch Karlstad DA08 6DF,London,United Kingdom,51.7145,-0.0476,recusandae alias
Ms. Anne Iqbal,None,8 Sarah road North Matthewview UB38 6AR,London,United Kingdom,51.3659,0.0535,occaecati ab
Miss Amanda Stanley,None,Studio 11 Joanne estates Port Jennifer TD5P 0UT,London,United Kingdom,51.3635,-0.3618,veritatis voluptatum
Mr. Dean Moore,None,Flat 88c Fuller view South Teresamouth ME2E 0RE,London,United Kingdom,51.7552,-0.0879,quibusdam molestias
Jason Roberts-Simpson,None,Flat 25W Barnes lake Smithfurt HX06 7NH,London,United Kingdom,51.5778,-0.0771,nemo commodi
Brenda Scott-Pratt,None,Flat 66W Emma loaf West Keithville M8 0PX,London,United Kingdom,51.6736,-0.3016,unde accusamus
Mr. Patrick Dobson,None,Studio 95K Peters squares North Ameliaview N9B 6TA,London,United Kingdom,51.6203,-0.3571,voluptate culpa
Terry Morley,None,Flat 3 Roberts courts New Louisechester M6 7FX,London,United Kingdom,51.5407,-0.1109,at magni
Shaun Webb,None,Studio 34 Wilson union Jonathanshire W3B 9DH,London,United Kingdom,51.6425,0.0072,est commodi
Roy Williams,None,717 Jackson place Greenport E11 9XZ,London,United Kingdom,51.7434,-0.0159,molestias magnam
Megan Norris,None,Studio 0 June bypass New Cameronberg L8W 7NE,London,United Kingdom,51.4185,-0.0602,mollitia corrupti
Carly Walker,None,Studio 28 Warner orchard Port Richardfort BT7V 2ZG,London,United Kingdom,51.6176,0.0663,id praesentium
William Johnson-Webb,None,Flat 95E Nicole brooks East Lawrence EC8 8TX,London,United Kingdom,51.679,-0.2336,asperiores quas
Ruth Harper,Happy,424 Smith forge Simpsonport E6W 5ZD,London,United Kingdom,51.3575,-0.2221,ea a
Eric McKenzie,None,Flat 24C Wilson corners North Frederick BA00 9RT,London,United Kingdom,51.6829,-0.2175,esse deleniti
Mr. Ronald Roberts,None,59 Philip shore East Lesley E0F 7QR,London,United Kingdom,51.7501,-0.2758,aliquam beatae
Miss Alexandra Williams,None,Flat 0 Smith ports Nigelstad BL2R 2ED,London,United Kingdom,51.4225,-0.3519,autem omnis
Caroline Roberts,None,Studio 2 Gregory loop Scottstad G90 1PA,London,United Kingdom,51.5819,0.0043,blanditiis doloremque
Mary Bowen,None,Studio 69 Connolly circles Lake Donaldview W3C 9AX,London,United Kingdom,51.3146,-0.3154,quisquam accusantium
Maureen West-Farrell,None,Studio 13 Clarke lock South Chelsea S61 5SH,London,United Kingdom,51.4812,0.1097,necessitatibus fugit
Dr. Alexander Brown,None,Flat 6 Philip lane Ashleighton E9 0QT,London,United Kingdom,51.4508,0.0165,sit error
Rosemary Morris,None,Studio 11l Jodie island North Rossberg LU53 9XL,London,United Kingdom,51.2933,-0.2557,repellat ipsam
Kirsty Hall,None,Studio 41E Gemma junction Dawsontown M2 0TB,London,United Kingdom,51.3242,-0.0769,eos excepturi
Dennis Davis,None,04 Barbara hill New Geraldineton G5E 8LF,London,United Kingdom,51.4448,-0.3496,possimus ipsa
Abdul Smith,None,72 Davies grove Roseview TW5P 5ZH,London,United Kingdom,51.4822,0.0874,possimus alias
Paul Hussain,None,Flat 71u Karen viaduct Port Martyn B3 2GZ,London,United Kingdom,51.7012,-0.26,nesciunt soluta
Richard Stone-Charlton,El,57 Kevin lodge South Kennethton M23 7NL,London,United Kingdom,51.51,0.0512,facere asperiores
Adam Jones-White,None,Studio 75 Davies mountains Oliverfurt S5 4PU,London,United Kingdom,51.5806,0.0646,consequuntur commodi
Elizabeth Shaw,None,03 Butler gateway Terryberg N0 8NE,London,United Kingdom,51.5369,-0.2092,quod necessitatibus
Edward Read,None,Studio 78 Gibson island Terrytown CT3E 1TJ,London,United Kingdom,51.4152,-0.3242,suscipit illum
Jade Gill,None,Flat 53W O'Brien knoll Lake Stuartmouth N4 8GU,London,United Kingdom,51.7365,0.0545,occaecati libero
Dr. Rita Evans,Pelon,Studio 92d Smith camp Port Philip BL3H 7PZ,London,United Kingdom,51.4073,0.0912,voluptate quaerat
Jamie Benson-Nicholson,None,8 Jemma key Smithstad SO45 7AQ,London,United Kingdom,51.5569,0.0507,vero id
Mr. George Jenkins,None,5 Reeves wells South Francisberg BA8M 8JN,London,United Kingdom,51.5166,-0.3492,dolor natus
Dominic McDonald,Pelon,Studio 18 Stephenson village Dianastad BB83 6BA,London,United Kingdom,51.7285,-0.201,necessitatibus sunt
Frank Simpson,None,049 Francis forks Elliottport SN6Y 5RB,London,United Kingdom,51.4189,-0.3117,quas laudantium
Ms. Marilyn Watson,Punch,Flat 00y Jill ports Natalieborough B53 1DB,London,United Kingdom,51.5318,0.0276,architecto minima
Craig Cook,None,Studio 5 Albert lights Martynfort HD5 5AH,London,United Kingdom,51.6875,-0.2811,ut unde
Bethany Matthews,None,Flat 63y Tom glens Paulfort B77 6BB,London,United Kingdom,51.4343,-0.2485,iure iure
Jade Hancock-Cooper,None,Studio 18 Pollard landing Port Wendyton ML06 4HP,London,United Kingdom,51.6934,-0.1106,minima adipisci
Diana Morgan,None,98 Wendy stravenue Marianfort N28 1FD,London,United Kingdom,51.2594,-0.0956,occaecati nulla
Maurice Knowles,None,97 Jessica unions Mauriceview M27 8WQ,London,United Kingdom,51.4194,-0.0025,vel eaque
Natalie Smith,Lil,Flat 90O Joanna mountains Pritchardland TD17 8PP,London,United Kingdom,51.3754,0.019,similique voluptate
Ms. Tracey Iqbal,Hot,Flat 9 Ahmed cliffs Lake Margaretstad B0 3BH,London,United Kingdom,51.5279,-0.3596,nostrum quaerat
Emma Richardson,None,4 Arthur island Emmaborough CV8H 6JL,London,United Kingdom,51.6494,-0.0545,quisquam possimus
Jamie Miller-Thornton,None,68 Iain heights South Brettborough EH7X 6NS,London,United Kingdom,51.4262,-0.2087,placeat aperiam
Elliot Cunningham,None,30 Long flats Briggshaven DN5 5HD,London,United Kingdom,51.5178,0.0852,explicabo expedita
Robert Hunter,None,Flat 29 Marie oval Reeceborough M76 9DL,London,United Kingdom,51.6319,-0.3681,recusandae cumque
Sam Watson-Harris,None,Flat 61U Scott harbors Marionberg CF04 7WH,London,United Kingdom,51.2805,-0.2057,temporibus perspiciatis
Stanley Smith,None,3 Victoria river South Tracyborough S2 7DY,London,United Kingdom,51.2618,-0.198,maxime atque
Derek James,None,Flat 2 Jay pass Ashleighhaven W93 8NH,London,United Kingdom,51.3499,-0.1588,rerum id
Glenn Holmes,None,038 Katy overpass West Emilyhaven RH2 3TZ,London,United Kingdom,51.3445,-0.1597,illo nisi
Emma Taylor,None,Flat 82 Stacey wall Colinview WN92 5RD,London,United Kingdom,51.712,-0.3028,inventore blanditiis
Dr. Ricky Greenwood,None,392 Evans plaza East Sian SW2 5LB,London,United Kingdom,51.3897,0.0565,repellat ex
Miss Jasmine Alexander,None,Flat 2 Harvey neck East Michael EH8N 8EQ,London,United Kingdom,51.2669,-0.3351,numquam in
Barry Green-Davis,Negro,560 Singh plaza West Martin CT5E 8PD,London,United Kingdom,51.3035,-0.122,praesentium occaecati
Nicholas Greenwood,None,Studio 01 Smith mountains Lake Dominic M3T 1GX,London,United Kingdom,51.5261,0.1096,odio possimus
Paige Davidson,None,505 Joseph wall West Andreaville S2 4DB,London,United Kingdom,51.59,-0.0973,illum alias
Mr. Iain Bates,Soft,910 Samantha union Taylormouth B06 8XF,London,United Kingdom,51.4546,0.0492,aut dolorem
Mrs. Shirley Reid,None,Studio 96B Hall terrace East Susanland LD4H 0WB,London,United Kingdom,51.342,-0.2292,fugit eaque
Debra Owen,None,Studio 7 Davidson track Hughton S01 7AL,London,United Kingdom,51.4257,0.0722,quis fugiat
Deborah Lewis,None,52 Martyn well Leonardhaven S3T 2ZH,London,United Kingdom,51.4757,-0.3495,reprehenderit magnam
Andrew Stephens,None,Studio 22 Craig view New Keithborough L81 9EB,London,United Kingdom,51.5206,0.1115,impedit ab
Arthur Evans,None,60 Andrew crossroad Mariaville DH5X 8LD,London,United Kingdom,51.4338,-0.3133,cupiditate molestias
Joshua Jones-Cunningham,None,Flat 1 Smith crossroad New Lesliemouth S95 5FR,London,United Kingdom,51.5048,-0.1886,beatae cum
Charlotte Lewis,None,76 Daly greens East Tony L84 9AU,London,United Kingdom,51.47,0.043,quia esse
Alexandra Shah,None,Flat 38 Danielle roads Garethshire CH76 9BW,London,United Kingdom,51.4424,-0.0676,inventore deleniti
Judith Horton,None,998 Murray stravenue Harrisfurt S54 8RH,London,United Kingdom,51.3433,0.0567,tenetur quibusdam
Jennifer Carr-Lee,None,81 Rosie river Lindseyside SE51 5YZ,London,United Kingdom,51.6609,-0.1379,sunt quo
Graeme Holmes,None,Studio 75e Jasmine forest Katiefort HU3V 3PB,London,United Kingdom,51.5096,-0.1073,exercitationem aut
Janice Hicks,None,57 Edwards point Deanbury SR2E 1ZZ,London,United Kingdom,51.2958,-0.2458,exercitationem iusto
Hilary Stone,None,Flat 9 Burton heights Barbaramouth IG70 3GE,London,United Kingdom,51.5837,-0.2838,corporis non
Suzanne Baker,None,65 Kirsty prairie East Joanland M6 6YF,London,United Kingdom,51.5609,0.0456,laudantium necessitatibus
Joseph Moore,None,579 Jade wells East Charleneborough EN2Y 6BH,London,United Kingdom,51.2682,0.0744,dolore totam
Neil Robinson,None,Studio 1 Holmes squares Chambersborough N25 5FG,London,United Kingdom,51.4968,-0.1776,assumenda at
Angela Stone,None,Flat 1 Gardner knolls North John G4B 1HB,London,United Kingdom,51.3071,-0.3498,cumque nesciunt
Grace Barrett,None,4 Shaun skyway South Jill G4U 5BH,London,United Kingdom,51.7126,-0.0069,corporis maxime
Jacob Hammond,None,073 Cox springs Dalestad L35 6ZQ,London,United Kingdom,51.3191,-0.2118,beatae quaerat
Paul Smith,She-wolf,86 Melissa ports South Howard IG3N 9BL,London,United Kingdom,51.5654,-0.1919,libero suscipit
Kenneth Stephenson,None,Studio 31C King mall New Kellyville DA2B 6LZ,London,United Kingdom,51.6391,-0.0058,enim laudantium
Benjamin Perry,None,Studio 23O Scott rapids Nigelport BT51 5QE,London,United Kingdom,51.3364,0.0908,ab repudiandae
Dr. Mitchell Jenkins,None,Flat 5 Eleanor row Terenceberg SL1X 9SZ,London,United Kingdom,51.5585,0.1002,porro sit
Dr. Elaine Smith,None,3 Susan park Hannahborough S21 8ST,London,United Kingdom,51.4733,-0.0578,dolore repellendus
Beverley Smith,None,Studio 7 Sian freeway Martinfurt N19 3GB,London,United Kingdom,51.3491,0.0394,incidunt ullam
Mr. Shane Barber,None,274 Fraser meadows Nashland DD45 8YY,London,United Kingdom,51.3707,0.0885,reiciendis amet
Debra Smith,None,Flat 9 Wright freeway New Roger S85 2EH,London,United Kingdom,51.4256,-0.1288,sapiente ex
Philip Holden,None,4 Maureen wall West Craigchester DN04 1RP,London,United Kingdom,51.2925,0.0544,impedit dolor
Leah Summers,None,Flat 18K Hollie ridge Sarahside G4 5XQ,London,United Kingdom,51.4808,-0.233,sint quasi
Janet Taylor,None,39 Lambert mountains Gibbonsborough ST8A 3EH,London,United Kingdom,51.3272,-0.1229,ipsa fugit
Laura Thornton,Chao,44 Anthony street Port Marcus CR2B 9GX,London,United Kingdom,51.7372,-0.2418,voluptatum ullam
Elliot Norman,None,Flat 9 Taylor extension North Lynda HR79 0JP,London,United Kingdom,51.6906,-0.1384,dolor similique
Mrs. Nicola Jones,None,Flat 06F Donna mill Lake Beverleyside B1K 5GZ,London,United Kingdom,51.7425,-0.336,ratione nihil
Rosemary Allen,None,69 Robinson knoll Lawrencestad TF6 9HW,London,United Kingdom,51.4829,-0.214,ea ad
Dr. Victor Cox,None,11 Patel throughway Lyndafurt W7 3XX,London,United Kingdom,51.3396,-0.0516,illum culpa
Susan Carter,None,Studio 3 Shaw via South Leon FY3 3FL,London,United Kingdom,51.7418,-0.0819,veniam accusamus
Roger Bird,Handlebars,594 Kevin mission Rossburgh S9F 1NR,London,United Kingdom,51.5369,0.0168,voluptatibus quas
Joshua Price,None,664 Lydia mills Timothytown HR7 5LD,London,United Kingdom,51.743,-0.0384,voluptatibus repudiandae
Denise Mann,None,4 Gallagher ways East Teresatown G20 6WN,London,United Kingdom,51.6134,-0.2896,unde error
Ms. Christine Barnett,None,689 Harris park Nicolefort B02 4EL,London,United Kingdom,51.4222,0.0248,similique esse
Bethany Pearce,None,817 Allen wall Mariamouth L6 5NE,London,United Kingdom,51.7168,-0.2745,aspernatur vel
Dr. Elizabeth Young,None,4 James points Robertschester W6 0TL,London,United Kingdom,51.3105,-0.1348,odit quibusdam
Mr. Gary Evans,None,3 Rowe plaza Teresamouth G0K 1PH,London,United Kingdom,51.7194,-0.3404,minus neque
Donna Walker,None,187 Tony shore Joanmouth N3 8LG,London,United Kingdom,51.3237,0.055,harum quaerat
Mr. Marc McCarthy,None,511 Shirley isle Robertsonland GY42 1ND,London,United Kingdom,51.5271,-0.1277,culpa harum
Mohamed Richards,None,87 Page spring New Sara L6W 8YF,London,United Kingdom,51.3715,0.0804,incidunt saepe
Suzanne Owens,None,6 Anne station New Rosemary N2K 9RD,London,United Kingdom,51.382,-0.1397,non aspernatur
Suzanne Spencer-Robinson,Sleepy,4 Joanna shoal Hortonberg BT2 1AZ,London,United Kingdom,51.6189,-0.2498,sunt quaerat
Ms. Lydia Gibbs,None,791 Collins junction Colemanchester N95 1HN,London,United Kingdom,51.412,-0.0985,magnam ullam
Jenna Thompson,None,Studio 45 Ali unions Whiteside W2A 0FQ,London,United Kingdom,51.5123,-0.1453,commodi velit
Shaun Ahmed,None,Flat 43H Terry vista Palmerfurt G00 5EN,London,United Kingdom,51.5663,-0.0855,dolor dolor
Dr. Alison Evans,None,00 Pearce plains Daviesbury L3 8JE,London,United Kingdom,51.6969,-0.2591,porro dignissimos
Gary Howe,None,Studio 81 Scott walk Shirleymouth IM95 7DF,London,United Kingdom,51.2838,0.0248,facilis blanditiis
Dr. Kevin Brown,None,226 Ronald valleys Clarketown LE65 8AD,London,United Kingdom,51.5077,-0.1365,aut illo
Carol Cross,Flames,Flat 1 Morton mountain North Lucy N63 7ED,London,United Kingdom,51.6384,0.0035,doloribus at
Iain Campbell,None,249 Abdul common Abbiechester TW2A 3YD,London,United Kingdom,51.4575,-0.1301,libero culpa
Christine Ball-Stewart,None,Studio 0 Richardson lane Darrentown S3U 0HS,London,United Kingdom,51.3177,0.0648,aspernatur quaerat
Ms. Jennifer Mitchell,None,Flat 7 Shirley rapid Hardymouth BA7H 3QD,London,United Kingdom,51.3705,-0.25,voluptas voluptates
Andrew Nash,None,Studio 0 Webb divide New Amber SP5V 6RQ,London,United Kingdom,51.6293,-0.3533,rem beatae
Marcus Jenkins,None,Flat 5 Clarke curve Gordonmouth N9 3LG,London,United Kingdom,51.7003,0.1034,delectus explicabo
Wayne Duffy,None,Flat 5 Sandra springs West Donnaport L7 1AE,London,United Kingdom,51.7171,0.0013,doloremque nesciunt
Helen Cook,None,Flat 89 King loaf East Terry IV7M 9ZB,London,United Kingdom,51.4082,-0.1966,sapiente molestias
Mr. Callum Hughes,None,Studio 43 Hilary haven Robinsonborough W7S 9JP,London,United Kingdom,51.7539,-0.3626,vitae corporis
Miss Francesca Frost,None,Studio 9 Watson mountain Griffithsville L51 5LH,London,United Kingdom,51.4104,-0.1664,assumenda aspernatur
Debra Davies,None,17 Richards shoals East Declanbury B59 8DT,London,United Kingdom,51.3812,-0.1488,harum mollitia
Alan Watts,None,82 Leah prairie Markfurt SY3W 2UA,London,United Kingdom,51.3323,-0.0729,sed modi
Mrs. Clare Slater,Oso,Flat 76 Patel overpass Hallbury CA1M 9ZJ,London,United Kingdom,51.4318,0.0146,maiores itaque
Joe Miah-Chapman,None,698 Steele courts Port Samanthafurt N4C 2SX,London,United Kingdom,51.4195,-0.0649,deserunt aspernatur
Alan Smith,None,Studio 3 Jamie pike West Gillian S7C 1SG,London,United Kingdom,51.6715,0.0157,modi laudantium
Judith Black,Al,08 Rosie groves Lake Frank W87 0QQ,London,United Kingdom,51.629,-0.1726,cum numquam
Mr. Russell Gray,None,92 Hughes squares Damianland W8 8BZ,London,United Kingdom,51.5703,-0.2588,quaerat quae
Russell Gibbs,None,Flat 8 Josephine gateway Williamsshire L6J 3AJ,London,United Kingdom,51.2772,0.0944,velit placeat
Joel Morgan,Jaguar,8 Paula stravenue Raymondburgh SA4 4GU,London,United Kingdom,51.2969,0.0286,suscipit nesciunt
Fiona Morgan,None,Studio 83j Morris locks Hallbury G72 2XA,London,United Kingdom,51.7128,0.1167,ut iusto
Mr. Trevor Russell,None,Studio 50Q Black orchard Lake Rogerstad KW27 3QS,London,United Kingdom,51.748,-0.0061,expedita nobis
Paul James,None,89 Evans fork Maxberg EH3 0SN,London,United Kingdom,51.7075,0.0989,excepturi deserunt
Abdul Doyle,None,Flat 06 Teresa inlet Lake Guy L3 6DS,London,United Kingdom,51.6478,0.0001,libero quas
Chelsea Howe,None,41 Jacqueline common South Tobyton RG48 2BQ,London,United Kingdom,51.4091,0.0793,asperiores repellat
Joe Wallace,None,Flat 00 Dylan rest West Carly E99 2WP,London,United Kingdom,51.5023,0.0332,nihil sint
Amy Ahmed-Edwards,None,0 Dominic court Gillville NR40 5JR,London,United Kingdom,51.7013,0.0079,dolore sit
Dr. Bryan Dean,None,Studio 09 Saunders port New Kelly SN53 9RN,London,United Kingdom,51.2874,-0.0233,impedit incidunt
Christine Ford-Rose,None,28 Sullivan ports Humphreysmouth SG3 1PY,London,United Kingdom,51.6792,0.1028,earum corporis
Beverley Martin,Jaguar,48 Julia mall Brandonview ST8 0GH,London,United Kingdom,51.5846,-0.0402,a porro
Mr. Robin Whitehouse,None,Flat 0 Reynolds harbors East Stanley PA5 2EF,London,United Kingdom,51.6097,-0.3518,ipsa nesciunt
Mrs. Olivia Lambert,None,Flat 52 Abbie union South Jasmineview E1H 3AN,London,United Kingdom,51.6933,0.1213,quidem eveniet
Damien Jones,None,7 Thompson springs Lynneberg PE1 8FZ,London,United Kingdom,51.6558,-0.0046,animi animi
Neil Morris,Flako,Flat 68M Doyle glen Daystad EC00 2RP,London,United Kingdom,51.7117,-0.0367,laborum magni
Eileen Hughes,Kiki,Studio 89 Hannah forges Rhodesstad SP9X 4SG,London,United Kingdom,51.5322,-0.0461,deserunt commodi
Gary Smith,None,02 Jones oval East Christopher W70 8ZB,London,United Kingdom,51.5909,-0.3624,suscipit dignissimos
Dr. Sean Baker,None,Studio 01 King track Aimeeberg OX39 6DY,London,United Kingdom,51.4956,-0.118,voluptate illum
Miss Amber Gibbs,None,6 Raymond heights Port Yvonneburgh N3 4HR,London,United Kingdom,51.3484,-0.0995,facere itaque
Miss Jemma King,None,Studio 05 Sam wells East Paulport BL5 4QF,London,United Kingdom,51.5118,0.0063,cum reprehenderit
Ms. Amy King,None,0 Toby plaza Phillipshire G48 4GE,London,United Kingdom,51.643,-0.0079,id in
Carole Francis,None,11 Howard cliffs New Richard DT1X 7EP,London,United Kingdom,51.5463,-0.1092,ipsam similique
Jamie Shaw-Smith,None,Studio 33Z Jayne fort Lake Lucy G4 0WE,London,United Kingdom,51.6652,-0.3559,sed nostrum
Sean Jones,None,Studio 52k Mistry wells Porterfort SY10 6DR,London,United Kingdom,51.3612,-0.2163,sequi error
Mary Turner,Storm,Studio 29x Jones burg South Natasha M0 3QE,London,United Kingdom,51.3767,-0.1573,exercitationem soluta
Kevin Adams,None,187 Joseph forest North Annetteview E9 9QU,London,United Kingdom,51.2926,-0.2735,magnam repellat
Mr. Liam Lucas,None,Flat 2 Sinclair drive New Beverleybury W74 1RY,London,United Kingdom,51.6747,-0.2259,laboriosam sit
Jonathan Baker,None,Studio 94 Joshua unions West Hughmouth LL3 6NQ,London,United Kingdom,51.5835,-0.3626,officiis nobis
Marilyn Ashton,None,2 Scott throughway Lake Annebury M3 0XQ,London,United Kingdom,51.349,-0.038,corrupti nobis
Louis Wright,None,05 Chan tunnel Allenmouth G4 4QG,London,United Kingdom,51.7327,-0.3445,nostrum hic
Dr. Yvonne King,Short,5 Simmons port Nelsontown G8W 0JT,London,United Kingdom,51.626,-0.0196,numquam quae
Bryan Brennan,None,Flat 43 Holden drives South Kellyfort B4 1AP,London,United Kingdom,51.6249,0.1099,sunt odit
Shane Dale,None,61 Christopher estate South William IV8 5PQ,London,United Kingdom,51.282,-0.1242,expedita quis
Roger Connolly,None,923 Conor branch Bevanview L50 5XQ,London,United Kingdom,51.6822,-0.1112,quibusdam odit
Francis Stephens,Duchess,Flat 57 Pearson bypass Marilynburgh G2 8LF,London,United Kingdom,51.3038,-0.097,eligendi facilis
Kim Marshall-Long,None,Flat 3 Davis lodge Lake Donald TA14 1TZ,London,United Kingdom,51.7412,-0.0668,blanditiis libero
Dr. Stuart Harper,None,Flat 62 Naomi shores Mariaborough SR01 6XU,London,United Kingdom,51.3216,0.1115,reiciendis repellendus
Vanessa Jones-Woods,None,36 Williams lane Hughesfort SG41 2NL,London,United Kingdom,51.3954,0.07,aut deleniti
Ms. Fiona Jones,None,41 Goddard orchard New Shaun WA33 6TP,London,United Kingdom,51.7279,-0.3015,exercitationem saepe
Shannon Jordan,None,3 Elliot prairie Woodsmouth CH7E 0GP,London,United Kingdom,51.3903,-0.295,perferendis quaerat
Grace West-Thomas,None,Studio 32 Carol unions Lake Josephineland S15 4DX,London,United Kingdom,51.4317,-0.3637,rem id
Mr. Roy Fleming,None,04 Andrew court East Sam E81 6WD,London,United Kingdom,51.6228,-0.1105,dolorem ratione
Dr. Mathew Cox,None,933 Scott fields Barrystad DN8 9QH,London,United Kingdom,51.7427,0.0244,non animi
Norman Clarke-Smith,None,10 Connolly shore Port Geoffreymouth HX20 3FB,London,United Kingdom,51.4298,-0.2775,possimus consequuntur
Wendy Jones-Tucker,None,Flat 0 Clive center Lake Benjamin CO57 2GE,London,United Kingdom,51.7433,-0.1251,totam deserunt
Sandra Peters-Ellis,None,54 Karl plaza Hillmouth S2 5UX,London,United Kingdom,51.7047,-0.2753,architecto corrupti
Dr. Leslie Lynch,None,Studio 05g Holt grove Connormouth G8T 3QY,London,United Kingdom,51.4826,-0.2095,animi occaecati
Mr. Phillip Howard,Bad,Studio 41n Louis ports East Mauriceton W1C 2RN,London,United Kingdom,51.5678,0.1091,at itaque
Leslie Gray,None,247 Vanessa oval North Ashleytown BR3E 2XB,London,United Kingdom,51.4351,-0.1574,voluptatibus pariatur
Hollie Hewitt,None,Studio 98 James branch Port Shirley SK1 9EX,London,United Kingdom,51.5919,0.0283,ea beatae
Bethan Shaw,None,51 Ahmed ways Webbshire DN3 4SB,London,United Kingdom,51.2694,-0.1882,iste voluptas
Catherine Hill,None,Studio 82p Clare common North Clive KT2 4QW,London,United Kingdom,51.6382,-0.3195,tenetur impedit
Julia Carter,None,Studio 87 Jill passage Gavinborough OX0 9YU,London,United Kingdom,51.6989,0.0808,consequuntur ducimus
Steven Fox,None,Studio 40 Austin common Bryantport M8F 6ZU,London,United Kingdom,51.4157,-0.0815,aliquam rem
Robert Evans,None,Flat 7 Sharon gardens South John E0 3JX,London,United Kingdom,51.4942,-0.1834,atque odio
Guy Chapman,None,8 Smith road Smithburgh NN74 9SQ,London,United Kingdom,51.2721,-0.103,reprehenderit quae
Ms. Valerie Dean,None,88 Dawson motorway Hillbury N7H 3JH,London,United Kingdom,51.3343,0.0522,non laborum
Miss Emily Turner,None,Studio 24 Abdul fall North Trevor PH0Y 6BR,London,United Kingdom,51.4388,-0.055,laboriosam repellendus
Rachael Cooper,None,8 Anthony common Marshallport DH3B 5JZ,London,United Kingdom,51.6873,-0.0186,mollitia dolorem
Dr. Marion Wilson,None,Studio 59j Amanda centers Lynneport GY3 5ZX,London,United Kingdom,51.7318,0.0352,veniam aliquid
Ricky Davis,None,113 Hollie drive Robertsport W6F 2ED,London,United Kingdom,51.5536,0.0791,ea ab
Roger Harrison,None,Studio 8 Josephine freeway Patelton BN7E 7TP,London,United Kingdom,51.7494,0.0001,non dolorum
Victoria Foster,Spite,7 Gill lake New Andrea NW01 3WH,London,United Kingdom,51.2945,0.0071,consequatur neque
Bethany Elliott,None,Flat 9 Deborah shoal North Scottport M9W 2RJ,London,United Kingdom,51.368,-0.3648,itaque eius
Anna Woods,None,Flat 2 Crawford hollow Lewiston M1 4PP,London,United Kingdom,51.2594,-0.3079,veniam velit
Gillian Smith,None,Studio 42y Christian trafficway South Gerald DT7P 3LU,London,United Kingdom,51.3815,0.0793,error dolores
Natalie Griffiths,None,158 Sullivan summit New Harrietshire CW1 4UJ,London,United Kingdom,51.3062,0.0003,dolore repudiandae
Gareth Morris,None,622 Donna grove Bakerport M61 7PJ,London,United Kingdom,51.4516,0.1036,officia consequuntur
Shannon Taylor,None,Studio 22s Jill parkways Damianton W55 1XJ,London,United Kingdom,51.465,-0.2831,atque similique
Cheryl Rhodes,None,Flat 0 Dylan lodge East Marion E16 9RP,London,United Kingdom,51.3158,0.0188,optio amet
Jeremy Hart,None,473 Reece tunnel Stanleyfort UB57 0TQ,London,United Kingdom,51.4106,-0.2327,ducimus porro
Francesca Shaw,None,8 Poole shoal Port Damianburgh B5S 6PH,London,United Kingdom,51.6797,-0.2147,commodi id
Ms. Kelly Cross,None,10 Paula manors Graemeland WC94 7BN,London,United Kingdom,51.4295,-0.0423,reiciendis vel
Dr. Shirley Begum,None,6 Lauren meadow Barbarafort W9E 2XB,London,United Kingdom,51.2588,-0.249,occaecati repellat
Craig Clarke,None,484 Howe ways Chapmanfort CH2V 9BR,London,United Kingdom,51.5072,-0.1218,eaque eveniet
Yvonne Austin,None,6 Jenkins parkway West Allan W9 3HU,London,United Kingdom,51.6217,-0.2946,in asperiores
Mr. Jason Rogers,None,384 Valerie highway Matthewside W94 8NW,London,United Kingdom,51.5452,-0.2447,voluptatibus ab
Gerard Thorpe-Davison,None,46 Scott forks Lake Abigailtown TQ3H 2JW,London,United Kingdom,51.6239,-0.3377,doloribus fugiat
Debra Francis,None,Flat 28z Todd pines North Louisberg S1 1ZG,London,United Kingdom,51.5167,-0.1739,laudantium voluptatibus
Marilyn Foster-Hughes,None,Studio 52b Rita stravenue Quinnhaven RG8 6NS,London,United Kingdom,51.5887,-0.2681,assumenda molestiae
Mr. Vincent Smith,Sniper,143 Hugh street New Janetstad L2 5RQ,London,United Kingdom,51.6907,0.05,adipisci amet
Ashleigh Dobson,None,Studio 35p Dixon ville Leachview W05 1GJ,London,United Kingdom,51.5847,-0.1152,modi molestias
Dr. Dawn Heath,None,9 Jemma flats North Karlburgh NN2X 4JS,London,United Kingdom,51.491,-0.1761,cumque aliquid
Benjamin Bates,None,Flat 63c Morley cape Patelfort SW7 6HR,London,United Kingdom,51.3049,-0.0008,deserunt iste
Christopher Pollard,None,Flat 19d Law courts Hewittport W1B 9DQ,London,United Kingdom,51.3617,-0.04,eos voluptatibus
Louis Ward,None,6 Jay rue West Louisemouth B8B 3AU,London,United Kingdom,51.3899,0.0394,vel omnis
Lynn Lewis,None,9 Joanne mews North Mitchell CA6M 4BU,London,United Kingdom,51.7283,-0.1648,at amet
Mrs. Sheila Hall,None,Flat 14f Moore overpass New Julian WD7W 5QS,London,United Kingdom,51.5788,-0.0662,maxime neque
Hugh Pickering,Electra,0 Lynch place Angelaton WC92 8AS,London,United Kingdom,51.302,-0.1659,nemo libero
Rhys Williamson,None,256 Watson spring Port Dylan GU1X 4ZP,London,United Kingdom,51.7418,-0.0585,velit occaecati
Jean Hamilton,None,0 Brooks manors Gerardhaven CV39 5XD,London,United Kingdom,51.7262,-0.2151,odit quaerat
Zoe Ross,Flames,Studio 68u Tracy roads Bradleystad BS8 0PY,London,United Kingdom,51.57,-0.1148,in minima
Tracey Shaw,None,Flat 33 Evans bridge North Pamela M8 4YF,London,United Kingdom,51.2812,-0.3315,itaque odit
Mrs. Elizabeth Allen,None,9 Joanna mountains Johnsonchester L8 8FH,London,United Kingdom,51.5591,-0.2971,perspiciatis eveniet
Callum John,Ghost,Flat 14 Bowen circle Lake Sianfort E8F 5JZ,London,United Kingdom,51.2933,-0.1198,modi vero
Denis Sutton-Burton,None,Flat 44x Young fall New Tony N46 1EF,London,United Kingdom,51.6761,-0.0998,sunt quas
Dr. Jane Cox,None,2 Lewis islands South Patrickview HR2M 3GS,London,United Kingdom,51.3716,0.0238,sed laborum
Janice Savage,She-wolf,Studio 86 Mitchell club New Kenneth B1H 2ED,London,United Kingdom,51.5836,-0.0618,repudiandae reiciendis
Dr. Leslie Norton,None,Flat 7 Poole court Port Frank BH31 3DN,London,United Kingdom,51.26,-0.3754,eius fugit
Michelle Lee-Robinson,Paco,850 Carole village Lake Juliaburgh BH7 2JJ,London,United Kingdom,51.3465,-0.2314,voluptas tenetur
Christopher Saunders-Garner,None,594 Summers viaduct Martynside IM7Y 1JJ,London,United Kingdom,51.2837,-0.3247,fugit dolore
Dr. Jay Brooks,None,808 Berry park Daleborough W6 0LJ,London,United Kingdom,51.658,-0.1035,quos ex
Duncan Williams,None,Flat 96 Katy streets South Lindsey DL1M 1RL,London,United Kingdom,51.4091,0.0888,voluptates quas
Karl Lees,None,Flat 72J Charles parkway Lake Kathrynmouth G4 8QH,London,United Kingdom,51.6614,-0.1278,perspiciatis officia
Leah Henderson,None,Flat 51 Jeffrey forks Edwardsside S1C 4FQ,London,United Kingdom,51.3241,-0.2768,a fugit
Shaun Evans,None,9 Graeme expressway Watsonmouth LA86 8PD,London,United Kingdom,51.6346,-0.212,hic quod
Ricky Perry,None,Studio 74X Bethan parkways Ericview S7 2ET,London,United Kingdom,51.3234,0.1184,commodi recusandae
Mandy French,None,0 Byrne shore North Gerald CR51 4WY,London,United Kingdom,51.3457,0.06,quas dolores
Mr. Damian Brown,None,Flat 12 Nicholas mission North Alex E4C 0QE,London,United Kingdom,51.7563,-0.1005,fuga odio
Chelsea Cross,None,Studio 96M Marie crossing Johnmouth EX86 6DR,London,United Kingdom,51.7073,0.1016,inventore rem
Bethany Williams,None,7 Frederick gardens New Bradleyside CA5 1FJ,London,United Kingdom,51.4288,-0.297,ex porro
Dr. Charlie Woods,None,Studio 41 Mandy road East Elizabethmouth N2 3DU,London,United Kingdom,51.7438,0.0468,veniam eius
Miss Vanessa Smith,None,807 Pauline radial Hughesview EN20 1QS,London,United Kingdom,51.2958,-0.3539,in occaecati
Ross Stevens,None,Studio 47d Davidson plaza East Trevor W6 8DA,London,United Kingdom,51.4854,0.0316,dolorem fuga
Tracy Davies,None,Flat 3 Gill center Payneland NP9 0RT,London,United Kingdom,51.433,-0.1444,nisi sint
Harry Mann,None,Studio 6 Simon glens Talbotberg JE90 9RE,London,United Kingdom,51.6908,0.0099,fuga ex
Mr. Christian Bates,None,Flat 43R Diana shores Lake Gregory RG9X 0PG,London,United Kingdom,51.285,-0.0242,maiores architecto
Damian Whitehead,None,3 Teresa corner Port Gailton E0 3DL,London,United Kingdom,51.3051,0.0651,doloribus odio
Mohammad Stokes-Wright,None,Studio 9 Jay islands Kimberg E8 8XH,London,United Kingdom,51.4606,-0.2769,porro voluptas
Paul Hill,None,37 Kirby club Dianeview DE9N 0YW,London,United Kingdom,51.6935,-0.1146,quidem aut
Mr. Oliver Smith,Guero,551 Owens oval Kellyhaven L4H 9BX,London,United Kingdom,51.3203,-0.275,reprehenderit debitis
Jonathan Gibson,Storm,Flat 09O Pauline estates Jacksonhaven CF84 9ST,London,United Kingdom,51.3872,-0.0049,deserunt animi
Diane Adams-Smith,None,Studio 09 Yates ports Pamelaberg B7 1RH,London,United Kingdom,51.5388,-0.3769,vitae sit
Zoe Potts,None,841 Smith spur Port Sallyborough N5K 7SF,London,United Kingdom,51.682,-0.0938,ducimus accusantium
Mr. Terry Smith,None,35 Whitehead port Fraserfort E2 4XH,London,United Kingdom,51.4946,0.0562,dolorum et
Mrs. Kathleen Jones,None,57 Patel coves Lake Tom B81 8ND,London,United Kingdom,51.3509,-0.3478,ratione fugit
Rachael Butler,None,Studio 81U Adrian route Port Edwardberg E5 7SF,London,United Kingdom,51.39,-0.3474,ut iure
Leah Phillips-Adams,None,Studio 9 Arnold islands Gemmaland G59 2DU,London,United Kingdom,51.6751,-0.0298,impedit debitis
Linda Bolton,None,615 Graham trafficway South Graeme S9A 4NJ,London,United Kingdom,51.2978,-0.1699,commodi aliquid
Anthony O'Brien,None,Studio 66k Barbara mill West Lorraine OX0X 6YF,London,United Kingdom,51.7374,-0.3763,itaque aspernatur
Laura Oliver,None,Flat 0 Mandy camp Burgessstad SL87 2AA,London,United Kingdom,51.747,-0.1125,debitis consectetur
Marc Jones,None,99 Jane tunnel Brianchester DD42 6YF,London,United Kingdom,51.6718,-0.0833,magni repellat
Graham Whittaker-Holmes,Madam,Flat 03U Sophie overpass Gloverborough DD22 0HX,London,United Kingdom,51.3745,0.0868,in iusto
Marilyn Bradley-Jones,Shovelhead,Flat 8 Mandy station West Mohammed LL7E 5GT,London,United Kingdom,51.6855,-0.1453,occaecati dolorem
Mr. Arthur Webb,None,6 Roger land East Ritaville M57 9EE,London,United Kingdom,51.7459,0.1095,mollitia earum
Paula Clarke,None,Studio 25d Mathew points Lake Dale DL96 0UD,London,United Kingdom,51.7054,-0.128,delectus animi
Dorothy Thomas-Singh,None,Studio 07Q Fiona plains Annaport TF74 9TX,London,United Kingdom,51.6357,-0.3579,dolorem ea
Ms. Megan Ball,None,Studio 8 Victor dam Lake Mohammad BA0E 5AE,London,United Kingdom,51.6946,-0.0086,voluptatem dolorum
Ms. Linda Bell,None,Studio 4 Palmer radial West Toby G5 6TJ,London,United Kingdom,51.5162,-0.2137,nisi tempore
Georgina Burrows,None,2 Parsons ridges West Georgia JE87 3QU,London,United Kingdom,51.5268,-0.1391,blanditiis iste
Tina Mills,None,Studio 9 Morley crescent Smithshire G7W 0AG,London,United Kingdom,51.337,-0.2201,necessitatibus aperiam
Mr. Charlie Owen,None,5 Jamie pass Cameronview M44 0AP,London,United Kingdom,51.7563,-0.2982,velit nemo
Ms. Melanie Russell,None,Studio 94 Clarke prairie Lewisborough E12 2UJ,London,United Kingdom,51.4911,-0.1405,quaerat repudiandae
Mrs. Frances Brooks,None,3 Jones gardens Hunterburgh WV3 5EB,London,United Kingdom,51.3163,-0.1063,facere placeat
Sophie Akhtar,None,585 Steven fords Alexandrahaven SN6P 9DD,London,United Kingdom,51.5919,-0.1255,ut exercitationem
Howard Macdonald,None,167 Mitchell mill Brandonland HS60 0GL,London,United Kingdom,51.5021,-0.1826,explicabo quas
Dr. Nicola Read,None,Flat 61 Hayley village North Zoe ZE2 5TR,London,United Kingdom,51.2649,-0.0338,quidem asperiores
Joanne Morton,None,44 Gill pines Ameliahaven L1T 2PF,London,United Kingdom,51.738,0.053,ratione illo
Marian Marshall,None,Flat 57f Webster shores West Bruceland B96 6TX,London,United Kingdom,51.6725,-0.3762,sit suscipit
Barry Manning,None,Studio 0 Kenneth drives South Jill N8K 9GX,London,United Kingdom,51.5898,-0.2753,pariatur facere
Ms. Sandra Griffiths,None,38 Malcolm lake East Gemma L9A 2DL,London,United Kingdom,51.5678,-0.2842,tempore ut
Ronald Smith-Lawrence,None,Studio 2 Iain knolls Martinland M6W 4EG,London,United Kingdom,51.2717,-0.23,provident quas
Marian Green,None,353 Dyer summit Nolanfort SP0 1TG,London,United Kingdom,51.5911,-0.0183,rem dolorem
Mrs. Sara Abbott,None,Studio 07N Schofield cove Garymouth W35 2RH,London,United Kingdom,51.3312,-0.3762,itaque veniam
Simon West,None,Studio 5 Amber crest Luketown SR02 0RG,London,United Kingdom,51.4731,-0.372,atque facere
Diane Mitchell,None,Flat 82 Tony station Myerston CR61 4JD,London,United Kingdom,51.4408,-0.1116,ab ad
Mrs. Jill Baker,None,Studio 61G Harry forks East Owen E4 4RA,London,United Kingdom,51.4938,-0.0204,eius dignissimos
Julian Turner,None,Studio 48f Watkins loaf Bradleyside B8 7YU,London,United Kingdom,51.5289,-0.341,nesciunt fugiat
Dr. Eleanor Walters,None,Flat 66B Rhodes shoals Duncanstad SM6 5ER,London,United Kingdom,51.3713,-0.3161,vitae ab
Barbara Slater,None,0 Morley ford New Alisonborough NG7P 6BZ,London,United Kingdom,51.6478,-0.3416,aperiam rem
Jemma Bryant,None,Flat 56M Deborah ports North Declan PH7 7GZ,London,United Kingdom,51.2851,-0.3722,et unde
Allan Lane-Lee,None,Studio 5 Wright walks Joannaville B0 4YZ,London,United Kingdom,51.5472,-0.0139,ex vero
Ruth Barker,None,Studio 50x Tracey inlet Jemmaborough FY2Y 6RS,London,United Kingdom,51.5282,-0.3231,ipsa voluptas
Miss Abbie Scott,None,Flat 35 Julian forks Alanmouth E7U 0EY,London,United Kingdom,51.33,-0.2436,voluptate illum
Mr. Bryan Williamson,None,Flat 1 Grace bridge Lake Deborah EN7 9AX,London,United Kingdom,51.4753,0.0574,exercitationem natus
Joan Roberts,None,53 Williamson valleys Lake Juliefort EX9 2RX,London,United Kingdom,51.7465,0.0835,necessitatibus quo
Mohamed Bailey,None,Flat 0 Graham crossing Geraldside GU0 2UU,London,United Kingdom,51.2754,-0.0293,tenetur sint
Frances Taylor,None,32 Sanderson plain Lake Alexandra TR9 0YB,London,United Kingdom,51.2679,-0.1046,magnam asperiores
Dr. Lucy Knight,Cartoon,Studio 06p Stevenson inlet Whitefurt B49 9GD,London,United Kingdom,51.323,-0.1179,facilis nesciunt
Ann Hamilton,None,31 Webb causeway East Aimeeview KT9E 6ZR,London,United Kingdom,51.5435,-0.0927,vel at
Dr. Jane Parkinson,Minx,Flat 04X Williams square Nicoleland E7 6GT,London,United Kingdom,51.6785,0.0964,assumenda qui
Adam Burrows,None,56 Bond stravenue North Sylvia N4A 4BF,London,United Kingdom,51.7321,-0.1364,itaque ullam
Pamela Price,None,304 Wright park North Stacey WN0Y 1AP,London,United Kingdom,51.734,-0.239,quasi magnam
Anatoli Pruschke,None,Greta-Vollbrecht-Weg 5/4 46296 Schleiz,London,Germany,50.3117,8.5599,blanditiis quia
Albin Scheibe B.A.,None,Köhlerweg 1 69825 Hagenow,London,Germany,50.1708,8.758,sapiente qui
H.-Dieter Rust,None,Christiana-Hövel-Gasse 56 36431 Wernigerode,London,Germany,50.0528,8.6716,recusandae repellat
Mandy Gorlitz-Jacob,None,Thekla-Langern-Straße 4/9 15798 Sigmaringen,London,Germany,50.2492,8.738,inventore tenetur
Adeline Schmiedt,Frosty,Agnieszka-Spieß-Platz 230 47675 Kamenz,London,Germany,50.2152,8.6261,saepe illum
Aleksander Metz,None,Noackstraße 221 05355 Lübeck,London,Germany,50.1927,8.5005,corrupti voluptatum
Mareen Hövel,None,Mosemannring 451 72846 Dinkelsbühl,London,Germany,50.3582,8.8349,eius laboriosam
Lioba Kreusel,None,Thekla-Seidel-Gasse 919 07763 Vohenstrauß,London,Germany,50.0078,8.9094,ipsum atque
Frau Sandy Trüb MBA.,None,Spießring 959 84099 Hildburghausen,London,Germany,49.9447,8.5873,labore mollitia
Yasmin Steckel MBA.,None,Gerhard-Kensy-Platz 7/4 38815 Lippstadt,London,Germany,50.2274,8.5611,atque iure
Natascha Jäkel,None,Birger-Rogner-Gasse 33 34885 Stendal,London,Germany,49.916,8.7882,necessitatibus blanditiis
Sigrid Bolzmann B.A.,None,Bachmanngasse 853 53739 Aurich,London,Germany,50.0192,8.6809,eius nostrum
Ulla Täsche B.Eng.,None,Berndt-Bruder-Gasse 945 69731 Strausberg,London,Germany,50.0012,8.5161,veniam officia
Horst-Dieter Gunpf-Gorlitz,None,Schmiedtstraße 99 80568 Gardelegen,London,Germany,50.0437,8.6705,enim perferendis
Ewald Bloch,None,Hessegasse 566 92514 Koblenz,London,Germany,50.158,8.7378,aut vitae
Ingolf Pölitz,None,Mülichengasse 063 51157 Wolmirstedt,London,Germany,49.997,8.4466,quis natus
Claudia Klapp MBA.,Angel,Patrik-Knappe-Ring 8/0 90756 Siegen,London,Germany,50.2424,8.7068,eaque fugiat
Ester Köster,None,Schleichring 01 03204 Chemnitz,London,Germany,50.1883,8.6789,possimus reprehenderit
Ortrun Kallert,Paiyaso,Michaele-Kuhl-Gasse 41 87447 Meppen,London,Germany,50.0259,8.6258,qui deserunt
Dr. Kati Schacht B.Eng.,None,Peer-Kühnert-Ring 34 16793 Schwarzenberg,London,Germany,50.0471,8.4989,dolore necessitatibus
Isabel Schacht,None,Mosemannplatz 2/7 38280 Eckernförde,London,Germany,50.1527,8.4391,consectetur dignissimos
Leonore Dietz,None,Bohlanderplatz 7 23513 Donaueschingen,London,Germany,50.0265,8.702,maiores nostrum
Sylvie Schenk,None,Minna-Trub-Ring 0/3 89021 Marienberg,London,Germany,49.9687,8.6893,iure commodi
Ing. Natalja Stroh B.Eng.,None,Ahmad-Stadelmann-Allee 568 13134 Ebermannstadt,London,Germany,50.3345,8.7683,vitae ex
Frieder Bien,None,Marlis-Beer-Platz 9/7 88589 Pinneberg,London,Germany,50.3419,8.5463,nam quia
Brunhild Walter,None,Löfflergasse 2 72117 Strausberg,London,Germany,50.0717,8.9217,iure accusamus
Reginald Karge,None,Paffrathplatz 531 70772 Konstanz,London,Germany,49.9904,8.5027,enim placeat
Siegmund Adler B.Eng.,None,auch Schlauchingasse 4/5 76067 Zeulenroda,London,Germany,49.9724,8.7251,praesentium consequuntur
Johan Matthäi,None,Fröhlichstraße 842 71643 Garmisch-Partenkirchen,London,Germany,49.8977,8.8546,accusantium nisi
Sabri Fechner,None,Nurettin-Schmidtke-Allee 048 87491 Staffelstein,London,Germany,50.1075,8.724,alias facilis
Maxim Lindner,None,Kuschplatz 9 57121 Mühlhausen,London,Germany,50.0094,8.8874,illum sequi
Reinhild Thanel,None,Henkstr. 50 41245 Neuss,London,Germany,50.1355,8.7506,repudiandae eaque
Belinda Zirme-Hentschel,None,Sylvester-Bloch-Ring 3 51368 Calw,London,Germany,50.2798,8.6861,dolorum hic
Zenta Renner-Finke,None,Staudeweg 8 08952 Konstanz,London,Germany,50.1213,8.8404,provident ipsum
Hartwig Wernecke,None,Florentine-Ehlert-Weg 070 00719 Sankt Goar,London,Germany,50.2606,8.894,explicabo corporis
Stefano Hesse,None,Grein Grothallee 8/8 59430 Warendorf,London,Germany,50.1347,8.4491,molestias optio
Katarina Jopich,None,Sibilla-Rohleder-Platz 752 34768 Lippstadt,London,Germany,50.1349,8.5181,iure placeat
Univ.Prof. Gerwin Klemt,None,Hülya-Bolzmann-Ring 9 16288 Kemnath,London,Germany,50.0973,8.6636,qui quia
Rüdiger Jopich,Chains,Sieringplatz 5/3 29166 Bernburg,London,Germany,50.0511,8.786,repellendus ipsam
Steffi Hellwig B.Eng.,None,Oestrovskystr. 5 63010 Nabburg,London,Germany,50.2099,8.7415,accusamus provident
Jiri Davids MBA.,None,Stavros-Kuhl-Straße 249 38669 Jülich,London,Germany,50.0598,8.6238,magnam nemo
Ariane Kambs B.Sc.,Ambush,Grein Grothgasse 756 08981 Grevenbroich,London,Germany,50.0414,8.7842,enim id
Nikolaus Bolnbach,None,Hanno-Austermühle-Ring 4/5 60312 Stendal,London,Germany,50.2642,8.4951,fugiat sint
Dipl.-Ing. Alex Mosemann,None,Athanasios-Gude-Allee 85 23960 Viersen,London,Germany,50.224,8.5353,modi nihil
Hannes Vogt,None,Nicole-Heydrich-Gasse 575 64570 Schmölln,London,Germany,50.1617,8.889,quam facere
Wulf Adolph-Liebelt,None,Steyallee 98 16830 Wittmund,London,Germany,49.8735,8.5717,odit facilis
Urszula Bonbach,None,Gertzweg 780 58291 Kleve,London,Germany,50.0063,8.4487,fugit reprehenderit
Eckhart Lorch,None,Sagerweg 6/6 78282 Greiz,London,Germany,49.8872,8.808,reiciendis possimus
Piotr Trapp,None,Maria-Luise-Hendriks-Allee 732 07768 Duderstadt,London,Germany,50.2457,8.5066,ratione impedit
Elenore Bender,None,Ringgasse 456 39353 Griesbach Rottal,London,Germany,49.9572,8.6949,repellendus natus
Henrik Etzler,None,Carstenplatz 4 41515 Kemnath,London,Germany,50.279,8.4949,distinctio ipsam
Ing. Carmelo Hornig,None,Hanno-Hörle-Platz 935 56423 Beeskow,London,Germany,50.1605,8.4371,reprehenderit eos
Franz Josef Fiebig,None,Samir-Dobes-Ring 96 22379 Rehau,London,Germany,49.8745,8.842,esse unde
Linda Sontag,Boulder,Lorchweg 3/8 14621 Darmstadt,London,Germany,50.2821,8.4974,eveniet a
Lilian Hande,None,Strohweg 1 77225 Aue,London,Germany,50.1054,8.5068,esse ea
Karla Grein Groth,None,Rosemarie-Säuberlich-Platz 4/0 23972 Ingolstadt,London,Germany,50.0131,8.4429,quibusdam maiores
Sylvester Etzler B.Sc.,None,Freudenbergerstraße 50 37546 Lüneburg,London,Germany,50.0207,8.5665,culpa repellat
Winfried Seip,None,Hilma-Zahn-Straße 91 57986 Spremberg,London,Germany,50.2298,8.6673,debitis mollitia
Prof. Stanislaw Börner B.Sc.,None,Urte-Kaul-Ring 9 81159 Göttingen,London,Germany,50.1188,8.4502,voluptatum dolorum
Prof. Konstanze Wohlgemut B.A.,Reaper,Baumweg 6/7 66027 Klötze,London,Germany,50.0974,8.6044,nihil at
Dipl.-Ing. Ortwin Fritsch B.A.,None,Kohlring 3 08108 Jüterbog,London,Germany,50.1984,8.7531,architecto vel
Donata Roht,None,Ditschlerinweg 15 21244 Forchheim,London,Germany,50.0042,8.4321,dolorem porro
Anastasios Binner,None,Gunhild-Stiebitz-Straße 408 69338 Kaiserslautern,London,Germany,49.8678,8.7073,assumenda ullam
Dipl.-Ing. Folkert Fritsch B.Eng.,None,Tlustekallee 7 22496 Greiz,London,Germany,50.1001,8.6392,minima minima
Carl-Heinz Sauer,None,Nergerplatz 765 42980 Augsburg,London,Germany,49.9283,8.7314,doloremque eum
David Huhn,None,Amelie-Knappe-Gasse 710 02681 Staßfurt,London,Germany,50.1195,8.4397,odit quas
Ricardo Bloch,None,Natalie-Krause-Ring 53 21107 Grimma,London,Germany,50.2844,8.7334,deleniti dicta
Dr. Ralf-Dieter Löchel B.Eng.,None,Hasan-Dietz-Gasse 93 60611 Aurich,London,Germany,50.0007,8.6511,laboriosam eligendi
Sofia Wende,None,Nergerring 3 35714 Olpe,London,Germany,49.9644,8.6518,laborum quod
Viviane Zobel B.Sc.,None,Kaulstraße 6 71193 Tuttlingen,London,Germany,50.2274,8.5944,repudiandae inventore
Reginald Junck B.A.,None,Silvio-Schinke-Weg 1 65474 Pößneck,London,Germany,50.3586,8.8358,accusantium placeat
Alberto Dehmel,None,Meyerallee 2 56539 Spremberg,London,Germany,50.319,8.8051,eligendi quasi
Falko Römer,None,Wilfriede-Fliegner-Gasse 51 38658 Holzminden,London,Germany,50.2001,8.4727,delectus maxime
Mechtild Sontag,Knuckles,Winklerplatz 22 40168 Eutin,London,Germany,50.064,8.5783,est impedit
Ludger Wohlgemut MBA.,None,Ismail-Haase-Ring 916 18549 Fürstenwalde,London,Germany,50.2394,8.6595,eius amet
German Stiebitz,None,Jäntschallee 41 91001 Saulgau,London,Germany,49.9091,8.6466,facere officiis
Ina Binner,None,Beierweg 62 53176 Ludwigsburg,London,Germany,49.954,8.5498,illo minus
Caren Süßebier,None,Valeri-Mosemann-Platz 02 63909 Passau,London,Germany,49.9978,8.8531,cumque dicta
Wiltrud Weller,None,Schmidtstraße 36 21445 Staßfurt,London,Germany,50.0372,8.9298,tenetur iusto
Paul-Heinz Zimmer,None,Marieluise-auch Schlauchin-Weg 0/2 68807 Ludwigslust,London,Germany,50.2303,8.7041,facilis quidem
Dipl.-Ing. Aziz Boucsein B.Sc.,None,Samira-Briemer-Allee 379 53865 Rehau,London,Germany,50.2546,8.7605,sunt sequi
Herr Korbinian Pieper,Yeyo,Korinna-Rose-Weg 02 97359 Erfurt,London,Germany,50.2643,8.8974,illum quod
Louis Pärtzelt,None,Bienallee 71 13084 Schwerin,London,Germany,50.1716,8.5496,repudiandae ut
Ing. Ellen Rohleder B.Eng.,Dollar,Michail-Salz-Ring 684 33829 Sankt Goarshausen,London,Germany,50.1723,8.6343,unde blanditiis
Erna Beyer,Satan,Jörg-Wirth-Allee 19 27841 Wittstock,London,Germany,50.1155,8.7338,velit numquam
Prof. Gülsen Holsten B.Sc.,None,Netteallee 021 17692 Füssen,London,Germany,49.9053,8.7093,laborum vitae
Elif Dehmel,None,Wesackstr. 7 22548 Worbis,London,Germany,50.0761,8.6534,sed eligendi
Beata Rörricht-Misicher,None,Kilian-Kabus-Platz 1/4 58822 Sonneberg,London,Germany,50.1485,8.757,corporis facilis
Freia Hermighausen,None,Atzlerweg 116 83723 Wanzleben,London,Germany,50.341,8.5005,quidem recusandae
Hans-Ulrich Spieß,None,Hoffmannallee 80 75444 Soltau,London,Germany,50.2869,8.5537,velit eligendi
Hassan Köhler-Löffler,None,Ullrichstr. 601 55844 Wolfach,London,Germany,50.3535,8.6571,ex similique
Hanspeter Fröhlich B.Sc.,Knuckles,Rena-Ritter-Platz 10 24714 Demmin,London,Germany,50.1727,8.4435,dolore quis
Dunja Mangold,None,Ruppertweg 5/2 16558 Main-Höchst),London,Germany,49.906,8.8354,numquam aliquam
Dr. Pero Kranz B.A.,Sharpies,Wulf-Röhrdanz-Allee 077 01925 Wolgast,London,Germany,50.1309,8.7781,quasi quae
Uwe Bauer,Cartoon,Remo-Weiß-Allee 424 14806 Badibling,London,Germany,49.88,8.9208,accusamus enim
Ursula Hövel,None,Kästerallee 84 62446 Heiligenstadt,London,Germany,50.3037,8.9081,dolor non
Sabri Stiffel,Raven,Fröhlichallee 202 24600 Staßfurt,London,Germany,49.8958,8.9181,repudiandae perspiciatis
Claire Reichmann-Schwital,None,Stahrplatz 23 51365 Gütersloh,London,Germany,50.1379,8.6326,quam dolore
Nuray Pruschke,None,Flora-Scholl-Weg 9/9 53876 Altötting,London,Germany,50.1832,8.5067,dolorem eveniet
Ferenc Trubin-Birnbaum,None,Clara-Stolze-Allee 0/0 46680 Marktheidenfeld,London,Germany,50.1587,8.5955,rerum eius
Milica Trub,None,Klaas-Adolph-Straße 7/0 44172 Uelzen,London,Germany,50.0939,8.654,in aspernatur
H.-Dieter Stumpf-Liebelt,None,Marita-Schleich-Straße 9 82286 Hildburghausen,London,Germany,50.1262,8.5037,unde corrupti
Klaus-Werner Schottin,Repogirl,Sorgatzweg 1/4 22377 Kleve,London,Germany,50.2554,8.6724,culpa blanditiis
Hermine Nette,None,Häringplatz 19 87476 Dresden,London,Germany,49.8798,8.4713,a dignissimos
Gerhard Aumann,None,Wendestr. 8/5 36196 Bernburg,London,Germany,50.0268,8.6494,quo quaerat
Judith Weller,G,Junckring 64 34199 Erding,London,Germany,50.0759,8.6649,quae dignissimos
Karl Heinz Schmiedecke,None,Marcel-Noack-Gasse 803 79555 Sömmerda,London,Germany,50.2799,8.8957,asperiores earum
Britt Schmiedecke,None,Guenther-Baum-Gasse 03 83049 Bremervörde,London,Germany,50.1678,8.7326,accusamus ea
Lioba Nette,None,Sieghard-Geisel-Allee 240 84072 Stadtsteinach,London,Germany,50.294,8.902,esse dicta
Filiz Mude,None,Dogan-Hövel-Weg 475 60867 Nabburg,London,Germany,50.2147,8.4627,aperiam eaque
Gerhart Seifert,None,Trommlergasse 1/9 20286 Luckau,London,Germany,50.3558,8.74,esse vitae
Patric Mohaupt,None,Guenther-Grein Groth-Weg 17 32247 Stendal,London,Germany,49.9403,8.664,aut nisi
Hans-Herbert Wilmsen,None,Hellwigring 991 52323 Bremervörde,London,Germany,49.9026,8.8163,maxime accusamus
Guenther Krause,None,Folker-Scheuermann-Platz 0 28761 Mellrichstadt,London,Germany,49.9058,8.8928,a laboriosam
Anna-Maria Rogner-Kusch,Yeyo,Mohammad-Börner-Ring 0 98109 Bergzabern,London,Germany,50.0289,8.7961,quisquam natus
Anneliese Karge,None,Nathalie-Hahn-Allee 4 62882 Emmendingen,London,Germany,50.2256,8.5934,saepe nemo
Ing. Maria Atzler,None,Dagmar-Oderwald-Gasse 7/8 16928 Staffelstein,London,Germany,50.2356,8.7485,vero excepturi
Moritz Kranz,Silver,Schenkstraße 02 86452 Pritzwalk,London,Germany,50.346,8.7674,nulla dignissimos
Univ.Prof. Fabian Gunpf,None,Raissa-Salz-Platz 841 94696 Hammelburg,London,Germany,50.252,8.7227,asperiores nostrum
Univ.Prof. Silvia Aumann,None,Reinhardtgasse 3/5 89794 Karlsruhe,London,Germany,49.9783,8.4587,ratione aliquam
Univ.Prof. Carina Scheibe,None,Irmtraud-Seifert-Platz 69 33169 Gelnhausen,London,Germany,50.1537,8.6252,veniam ipsum
Edda Drub,None,Ekkehart-Wähner-Gasse 961 43104 Holzminden,London,Germany,50.3559,8.6272,sit qui
Walfried Roskoth-Hövel,None,Sauerallee 71 41935 Neustrelitz,London,Germany,50.2225,8.521,ab quis
Ing. Wilfriede Aumann,None,Karzstraße 3 54785 Hildburghausen,London,Germany,50.2277,8.6279,ut porro
Patricia Rose-Hettner,None,Claus-Rosemann-Platz 920 14553 Kronach,London,Germany,50.0405,8.7732,aspernatur nulla
Auguste Heinz-Hartung,None,Dogan-Drewes-Gasse 5 42638 Heiligenstadt,London,Germany,49.9264,8.7259,corrupti ducimus
Kemal Hesse B.Sc.,None,Sölzerstraße 8/4 01283 Lübz,London,Germany,49.9085,8.6217,voluptates dignissimos
Ottilie Blümel-Jungfer,None,Ringring 90 50779 Mellrichstadt,London,Germany,49.9905,8.8817,itaque fuga
Univ.Prof. André Siering B.Sc.,None,Albin-Schleich-Gasse 120 83646 Sebnitz,London,Germany,50.1415,8.844,ducimus cumque
Robert Klemm,None,Gerhild-Baum-Ring 5/3 05784 Lippstadt,London,Germany,49.8794,8.8993,soluta accusamus
Mohammad Weller,None,Ruppertgasse 9/7 58883 Vilsbiburg,London,Germany,50.0104,8.6392,doloremque similique
Herr Sandor Sölzer B.Eng.,None,Schülerstraße 0/6 49920 Chemnitz,London,Germany,49.9129,8.6142,doloremque ullam
Pamela Geisler,Chuey,Hans-Josef-Sorgatz-Allee 5 32153 Hannoversch Münden,London,Germany,50.0034,8.7512,numquam vitae
Marko Krause B.Eng.,Pelon,Höfigweg 556 18282 Backnang,London,Germany,50.3153,8.6834,porro praesentium
Nadin Ackermann,None,Zorbachstr. 3 64390 Göttingen,London,Germany,50.3297,8.5197,sint quis
Herr Mathias Rädel B.Sc.,None,Drubinstraße 546 66042 Nordhausen,London,Germany,50.08,8.7419,maiores pariatur
Ing. Cornelius Briemer B.A.,None,Antonia-Schomber-Gasse 913 18481 Bischofswerda,London,Germany,50.329,8.537,assumenda itaque
Sepp Eimer,None,Etzoldallee 219 48273 Senftenberg,London,Germany,50.2607,8.8579,exercitationem possimus
Dominic Schäfer B.Sc.,None,Etzoldstraße 79 37635 Nordhausen,London,Germany,50.3256,8.4521,explicabo quam
